race_code,common_name,year,haul,haul_date,vessel,station,area_km2,district,section,start_latitude,start_longitude,avg_depth_fm,tow_distance_km,net_width_km,area_swept_km2,total_weight_kg,total_number_caught
21720,Pacific cod,1988,88010001,7/18/1988,Resolution,CHJ,11.3,1,1,57.743,-152.394,35,1.9,0.0122,0.02258,14.52,6
21720,Pacific cod,1988,88010002,7/18/1988,Resolution,CHE,20.6,1,1,57.6775,-152.4592,12,1.9,0.0122,0.02258,0,0
21720,Pacific cod,1988,88010003,7/18/1988,Resolution,CHA,5.5,1,1,57.6173,-152.4343,30,1.9,0.0122,0.02258,9.53,3
21720,Pacific cod,1988,88010004,7/18/1988,Resolution,CHB,7.9,1,1,57.6417,-152.3995,43,1.9,0.0122,0.02258,16.78,5
21720,Pacific cod,1988,88010005,7/18/1988,Resolution,CHF,12.7,1,1,57.6913,-152.3333,79,1.9,0.0122,0.02258,4.54,1
21720,Pacific cod,1988,88010006,7/19/1988,Resolution,CHK,8.6,1,1,57.7178,-152.3082,83,1.9,0.0122,0.02258,21.77,8
21720,Pacific cod,1988,88010007,7/19/1988,Resolution,CHL,14.1,1,1,57.721,-152.2617,90,1.9,0.0122,0.02258,0,0
21720,Pacific cod,1988,88020218,8/5/1988,Resolution,MOV,15.2,2,2,54.7922,-163.187,47,1.9,0.0122,0.02258,83.46,53
21720,Pacific cod,1988,88020219,8/5/1988,Resolution,MOW,21.4,2,2,54.795,-163.0997,20,1.7,0.0122,0.02032,481.27,240
21720,Pacific cod,1988,88020220,8/5/1988,Resolution,87,88.4,2,2,54.7697,-162.9658,44,1.9,0.0122,0.02258,27.22,14
21720,Pacific cod,1988,88020221,8/5/1988,Resolution,98,89.5,2,2,54.7852,-162.8898,29,1.9,0.0122,0.02258,0,0
21720,Pacific cod,1988,88020222,8/5/1988,Resolution,97,86.5,2,2,54.8545,-162.8395,23,1.9,0.0122,0.02258,0,0
21720,Pacific cod,1988,88020223,8/5/1988,Resolution,MOP,22.3,2,2,54.8497,-162.9768,41,1.9,0.0122,0.02258,128.37,132
21720,Pacific cod,1988,88020224,8/5/1988,Resolution,MOO,21.4,2,2,54.8692,-163.0205,47,1.9,0.0122,0.02258,31.75,12
21720,Pacific cod,1988,88020225,8/5/1988,Resolution,MOS,21.4,2,2,54.8378,-163.0882,47,1.9,0.0122,0.02258,31.75,9
21720,Pacific cod,1988,88020226,8/5/1988,Resolution,MOR,18.5,2,2,54.8375,-163.1555,49,1.9,0.0122,0.02258,487.62,292
21720,Pacific cod,1988,88020227,8/6/1988,Resolution,MOT,21.9,2,2,54.7898,-163.2868,50,1.5,0.0122,0.01806,89.81,48
21720,Pacific cod,1988,88020228,8/6/1988,Resolution,MOU,18.7,2,2,54.7985,-163.2512,48,1.9,0.0122,0.02258,116.12,60
21720,Pacific cod,1988,88020229,8/6/1988,Resolution,MOM,17.3,2,2,54.8643,-163.1667,23,1.9,0.0122,0.02258,1.81,16
21720,Pacific cod,1988,88020230,8/6/1988,Resolution,MON,21.3,2,2,54.8558,-163.1157,53,1.9,0.0122,0.02258,83.92,39
21720,Pacific cod,1988,88020231,8/6/1988,Resolution,MOJ,15.9,2,2,54.9057,-163.0655,38,1.9,0.0122,0.02258,131.09,135
21720,Pacific cod,1988,88020232,8/6/1988,Resolution,MOK,21.4,2,2,54.9087,-163.003,60,1.9,0.0122,0.02258,24.04,13
21720,Pacific cod,1988,88020233,8/6/1988,Resolution,MOL,21.4,2,2,54.9223,-162.9777,69,1.9,0.0122,0.02258,36.29,13
21720,Pacific cod,1988,88020234,8/6/1988,Resolution,MOI,16.9,2,2,54.9573,-162.9792,55,1.9,0.0122,0.02258,59.87,26
21720,Pacific cod,1988,88020235,8/6/1988,Resolution,MOG,17.6,2,2,54.9858,-162.9963,51,1.9,0.0122,0.02258,45.36,25
21720,Pacific cod,1988,88020236,8/7/1988,Resolution,MOC,20.2,2,2,55.0388,-163.1502,29,1.9,0.0122,0.02258,64.41,72
21720,Pacific cod,1988,88020237,8/7/1988,Resolution,MOA,17.8,2,2,55.0722,-163.1358,23,1.9,0.0122,0.02258,2.27,20
21720,Pacific cod,1988,88020238,8/7/1988,Resolution,MOB,18.5,2,2,55.0805,-163.0755,35,1.9,0.0122,0.02258,54.43,29
21720,Pacific cod,1988,88020239,8/7/1988,Resolution,MOD,16.1,2,2,55.047,-163.0723,23,1.9,0.0122,0.02258,60.33,29
21720,Pacific cod,1988,88020240,8/7/1988,Resolution,MOE,16.2,2,2,55.0207,-163.0227,49,1.9,0.0122,0.02258,47.17,23
21720,Pacific cod,1988,88020241,8/7/1988,Resolution,MOF,20,2,2,55.0107,-163.0802,43,1.9,0.0122,0.02258,39.46,34
21720,Pacific cod,1988,88020242,8/7/1988,Resolution,MOH,15.1,2,2,54.9623,-163.0052,57,1.9,0.0122,0.02258,34.02,10
21720,Pacific cod,1988,88020243,8/8/1988,Resolution,BEG,20.3,2,3,54.9792,-162.1938,45,1.9,0.0122,0.02258,22.68,14
21720,Pacific cod,1988,88020244,8/8/1988,Resolution,156,89.1,2,3,54.9777,-162.1107,51,1.9,0.0122,0.02258,33.11,14
21720,Pacific cod,1988,88020245,8/8/1988,Resolution,157,87.7,2,3,54.9213,-162.1293,42,1.9,0.0122,0.02258,66.68,49
21720,Pacific cod,1988,88020246,8/8/1988,Resolution,145B,32.7,2,3,54.8793,-162.1625,40,1.9,0.0122,0.02258,2.27,4
21720,Pacific cod,1988,88020247,8/9/1988,Resolution,COB,20.8,2,3,55.2282,-162.6045,30,1.9,0.0122,0.02258,9.98,5
21720,Pacific cod,1988,88020248,8/9/1988,Resolution,COC,14.2,2,3,55.2162,-162.561,30,1.9,0.0122,0.02258,0.45,0
21720,Pacific cod,1988,88020249,8/9/1988,Resolution,COE,20.2,2,3,55.1972,-162.5632,15,1.9,0.0122,0.02258,13.61,6
21720,Pacific cod,1988,88020250,8/9/1988,Resolution,COF,11.5,2,3,55.1708,-162.5327,21,1.3,0.0122,0.01581,59.42,28
21720,Pacific cod,1988,88020251,8/9/1988,Resolution,COG,11,2,3,55.1448,-162.4997,24,1.9,0.0122,0.02258,90.72,38
21720,Pacific cod,1988,88020252,8/9/1988,Resolution,COH,4.8,2,3,55.1227,-162.44,30,1.9,0.0122,0.02258,18.14,7
21720,Pacific cod,1988,88020253,8/10/1988,Resolution,COJ,20.8,2,3,55.0625,-162.5627,19,1.9,0.0122,0.02258,128.82,454
21720,Pacific cod,1988,88020254,8/10/1988,Resolution,COL,18.2,2,3,55.0278,-162.5195,31,1.9,0.0122,0.02258,3.18,4
21720,Pacific cod,1988,88020255,8/10/1988,Resolution,COP,9.2,2,3,55.0552,-162.5298,20,1.9,0.0122,0.02258,4.54,7
21720,Pacific cod,1988,88020256,8/10/1988,Resolution,COQ,20.6,2,3,55,-162.4922,22,1.9,0.0122,0.02258,2.27,4
21720,Pacific cod,1988,88020257,8/10/1988,Resolution,COM,18.5,2,3,55.0213,-162.478,34,1.9,0.0122,0.02258,6.8,7
21720,Pacific cod,1988,88020258,8/10/1988,Resolution,CON,14.6,2,3,55.0032,-162.3923,60,1.9,0.0122,0.02258,166.92,87
21720,Pacific cod,1988,88020259,8/10/1988,Resolution,COO,18.7,2,3,55.0058,-162.3532,62,1.1,0.0122,0.01355,195.05,130
21720,Pacific cod,1988,88020260,8/10/1988,Resolution,169,48.6,2,3,55.0162,-162.1237,50,1.9,0.0122,0.02258,66.23,30
21720,Pacific cod,1988,88020261,8/11/1988,Resolution,BEA,4.9,2,3,55.1343,-162.1872,18,1.9,0.0122,0.02258,1459.22,890
21720,Pacific cod,1988,88020262,8/11/1988,Resolution,BEB,10.3,2,3,55.1182,-162.1692,40,1.9,0.0122,0.02258,42.64,23
21720,Pacific cod,1988,88020263,8/11/1988,Resolution,BED,17.5,2,3,55.1002,-162.1707,49,1.9,0.0122,0.02258,40.82,29
21720,Pacific cod,1988,88020264,8/11/1988,Resolution,BEC,8.1,2,3,55.0972,-162.1847,39,1.9,0.0122,0.02258,161.48,116
21720,Pacific cod,1988,88020265,8/11/1988,Resolution,BEE,21.4,2,3,55.062,-162.157,42,1.9,0.0122,0.02258,11.34,7
21720,Pacific cod,1988,88020266,8/11/1988,Resolution,VOT,18.5,2,4,55.1105,-161.8648,45,1.9,0.0122,0.02258,362.88,240
21720,Pacific cod,1988,88020267,8/11/1988,Resolution,VOO,18.2,2,4,55.1773,-161.9517,42,1.9,0.0122,0.02258,47.63,18
21720,Pacific cod,1988,88020269,8/12/1988,Resolution,VOL,8.9,2,4,55.2288,-161.9965,37,1.9,0.0122,0.02258,123.83,46
21720,Pacific cod,1988,88020270,8/12/1988,Resolution,VOQ,15.9,2,4,55.1948,-161.8378,49,1.9,0.0122,0.02258,102.06,43
21720,Pacific cod,1988,88020271,8/12/1988,Resolution,VOR,21.1,2,4,55.1948,-161.7588,62,1.5,0.0122,0.01806,56.25,25
21720,Pacific cod,1988,88020272,8/12/1988,Resolution,VON,22.1,2,4,55.2247,-161.7557,61,1.9,0.0122,0.02258,207.75,104
21720,Pacific cod,1988,88020273,8/12/1988,Resolution,VOM,27.3,2,4,55.2277,-161.8258,52,1.9,0.0122,0.02258,21.32,9
21720,Pacific cod,1988,88020274,8/12/1988,Resolution,VOF,22.2,2,4,55.2593,-161.8272,53,1.9,0.0122,0.02258,37.19,16
21720,Pacific cod,1988,88020275,8/12/1988,Resolution,VOG,22.1,2,4,55.2588,-161.7715,58,1.9,0.0122,0.02258,298.01,131
21720,Pacific cod,1988,88020276,8/12/1988,Resolution,VOH,21.7,2,4,55.2767,-161.7158,56,1.9,0.0122,0.02258,0,0
21720,Pacific cod,1988,88020277,8/12/1988,Resolution,VOI,21.2,2,4,55.2877,-161.6175,59,1.9,0.0122,0.02258,86.64,64
21720,Pacific cod,1988,88020278,8/12/1988,Resolution,VOJ,20.7,2,4,55.2925,-161.5447,48,1.9,0.0122,0.02258,570.63,180
21720,Pacific cod,1988,88020279,8/13/1988,Resolution,PAH,14.2,2,4,55.5352,-161.6162,20,1.9,0.0122,0.02258,30.84,22
21720,Pacific cod,1988,88020280,8/13/1988,Resolution,PAI,21.4,2,4,55.5085,-161.5948,18,1.9,0.0122,0.02258,9.07,4
21720,Pacific cod,1988,88020281,8/13/1988,Resolution,PAD,4.2,2,4,55.5533,-161.614,12,1.9,0.0122,0.02258,4.08,4
21721,Juvenile Cod,1988,88020281,8/13/1988,Resolution,PAD,4.2,2,4,55.5533,-161.614,12,1.9,0.0122,0.02258,13.61,3016
21720,Pacific cod,1988,88020282,8/13/1988,Resolution,PAA,2.9,2,4,55.588,-161.5595,10,1.9,0.0122,0.02258,5.44,19
21720,Pacific cod,1988,88020283,8/13/1988,Resolution,PAB,12.3,2,4,55.5878,-161.5257,12,1.9,0.0122,0.02258,4.54,4
21720,Pacific cod,1988,88020284,8/13/1988,Resolution,PAC,12,2,4,55.6057,-161.4398,13,1.9,0.0122,0.02258,21.77,18
21720,Pacific cod,1988,88020285,8/13/1988,Resolution,PAG,5.3,2,4,55.5845,-161.4373,12,1.9,0.0122,0.02258,10.43,19
21720,Pacific cod,1988,88020286,8/13/1988,Resolution,PAF,20.8,2,4,55.581,-161.4923,17,1.9,0.0122,0.02258,19.96,14
21720,Pacific cod,1988,88020287,8/13/1988,Resolution,PAE,16.7,2,4,55.5713,-161.5708,12,1.9,0.0122,0.02258,31.75,51
21721,Juvenile Cod,1988,88020287,8/13/1988,Resolution,PAE,16.7,2,4,55.5713,-161.5708,12,1.9,0.0122,0.02258,3.18,589
21720,Pacific cod,1988,88020288,8/13/1988,Resolution,PAJ,16.9,2,4,55.5403,-161.5263,18,1.9,0.0122,0.02258,9.98,9
21720,Pacific cod,1988,88020289,8/14/1988,Resolution,PAL,18.4,2,4,55.5003,-161.6077,43,1.7,0.0122,0.02032,238.14,216
21720,Pacific cod,1988,88020290,8/14/1988,Resolution,PAO,27,2,4,55.4547,-161.6435,56,1.9,0.0122,0.02258,275.79,214
21720,Pacific cod,1988,88020291,8/14/1988,Resolution,PAR,39.8,2,4,55.4238,-161.673,58,1.9,0.0122,0.02258,122.02,54
21720,Pacific cod,1988,88020292,8/14/1988,Resolution,PAU,21.4,2,4,55.3787,-161.6832,67,1.9,0.0122,0.02258,76.2,42
21720,Pacific cod,1988,88020293,8/14/1988,Resolution,PAT,13,2,4,55.3722,-161.7178,42,0.9,0.0122,0.01129,35.83,20
21720,Pacific cod,1988,88020294,8/14/1988,Resolution,VOA,22.1,2,4,55.3233,-161.7445,50,1.9,0.0122,0.02258,1218.36,583
21720,Pacific cod,1988,88020295,8/14/1988,Resolution,VOB,21.4,2,4,55.3078,-161.6875,56,1.9,0.0122,0.02258,44,13
21720,Pacific cod,1988,88020296,8/14/1988,Resolution,VOC,22.1,2,4,55.32,-161.623,54,1.9,0.0122,0.02258,30.84,15
21720,Pacific cod,1988,88020297,8/14/1988,Resolution,PAV,20.6,2,4,55.3465,-161.5852,53,1.9,0.0122,0.02258,51.26,26
21720,Pacific cod,1988,88020298,8/14/1988,Resolution,PAS,11.3,2,4,55.4002,-161.5937,47,1.9,0.0122,0.02258,15.88,7
21720,Pacific cod,1988,88020299,8/15/1988,Resolution,PAM,21.4,2,4,55.4853,-161.5523,33,1.9,0.0122,0.02258,45.81,27
21720,Pacific cod,1988,88020300,8/15/1988,Resolution,PAN,8.1,2,4,55.4758,-161.524,21,1.7,0.0122,0.02032,36.29,18
21720,Pacific cod,1988,88020302,8/15/1988,Resolution,PAP,20.8,2,4,55.4507,-161.5993,41,1.9,0.0122,0.02258,18.6,13
21720,Pacific cod,1988,88020303,8/15/1988,Resolution,PAWA,15.4,2,4,55.3702,-161.5573,38,1.9,0.0122,0.02258,123.38,131
21720,Pacific cod,1988,88020304,8/15/1988,Resolution,VOD,20.8,2,4,55.3128,-161.5483,54,1.9,0.0122,0.02258,232.7,103
21720,Pacific cod,1988,88020305,8/15/1988,Resolution,VOE,20.8,2,4,55.3185,-161.4728,35,1.9,0.0122,0.02258,9.07,7
21720,Pacific cod,1988,88020306,8/16/1988,Resolution,VOK,21.4,2,4,55.2858,-161.4712,28,0.9,0.0122,0.01129,56.7,41
21720,Pacific cod,1988,88020307,8/16/1988,Resolution,228,12.8,2,4,55.2695,-161.3128,40,1.9,0.0122,0.02258,27.22,7
21720,Pacific cod,1988,88020308,8/16/1988,Resolution,278,71.4,2,5,55.383,-160.9137,43,1.9,0.0122,0.02258,657.72,193
21720,Pacific cod,1988,88020309,8/16/1988,Resolution,BVC,18.9,2,5,55.416,-160.9323,77,1.9,0.0122,0.02258,69.85,53
21720,Pacific cod,1988,88020310,8/16/1988,Resolution,BVA,13.5,2,5,55.477,-160.9147,25,1.9,0.0122,0.02258,4.08,1
21720,Pacific cod,1988,88020311,8/17/1988,Resolution,261,63,2,5,55.3847,-160.9807,24,1.9,0.0122,0.02258,86.18,36
21720,Pacific cod,1988,88020312,8/17/1988,Resolution,245,21,2,4,55.2778,-161.1955,37,1.9,0.0122,0.02258,259,268
21720,Pacific cod,1988,88020313,8/17/1988,Resolution,246,86.4,2,4,55,-161.2005,0,0.9,0.0122,0.01129,0,0
21720,Pacific cod,1988,88020314,8/17/1988,Resolution,264,87.1,2,4,55.11,-161.0387,73,1.9,0.0122,0.02258,123.38,35
21720,Pacific cod,1988,88020315,8/17/1988,Resolution,263,86.7,2,4,55.1857,-161.0395,60,1.9,0.0122,0.02258,12.7,3
21720,Pacific cod,1988,88020316,8/17/1988,Resolution,BVD,25.3,2,5,55.4527,-160.8985,49,1.3,0.0122,0.01581,20.41,15
21720,Pacific cod,1988,88020317,8/17/1988,Resolution,BVB,14,2,5,55.4777,-160.8902,23,1.9,0.0122,0.02258,11.34,5
21720,Pacific cod,1988,88020318,8/18/1988,Resolution,329,81.2,2,5,55.454,-160.4517,85,1.1,0.0122,0.01355,45.36,16
21720,Pacific cod,1988,88020319,8/18/1988,Resolution,311,55.5,2,5,55.4428,-160.5545,74,1.9,0.0122,0.02258,41.73,13
21720,Pacific cod,1988,88020320,8/18/1988,Resolution,BAF,9.4,2,5,55.4852,-160.568,47,1.7,0.0122,0.02032,4.54,2
21720,Pacific cod,1988,88020321,8/18/1988,Resolution,BAD,8.3,2,5,55.5078,-160.5835,53,1.9,0.0122,0.02258,20.41,8
21720,Pacific cod,1988,88020322,8/18/1988,Resolution,BAA,12,2,5,55.537,-160.6853,18,1.9,0.0122,0.02258,15.88,6
21720,Pacific cod,1988,88020323,8/18/1988,Resolution,BAC,16.9,2,5,55.5258,-160.6238,52,1.9,0.0122,0.02258,8.62,5
21720,Pacific cod,1988,88020324,8/18/1988,Resolution,BAE,12.7,2,5,55.4935,-160.6142,62,1.9,0.0122,0.02258,5.44,3
21720,Pacific cod,1988,88020325,8/18/1988,Resolution,312A,22.3,2,5,55.4077,-160.5817,44,1.3,0.0122,0.01581,146.97,92
21720,Pacific cod,1988,88010008,8/23/1988,Resolution,859,85.7,1,3,56.3322,-154.0857,47,1.9,0.0122,0.02258,16.78,9
21720,Pacific cod,1988,88010009,8/23/1988,Resolution,858,85.7,1,3,56.3137,-154.22,50,1.9,0.0122,0.02258,115.67,22
21720,Pacific cod,1988,88010010,8/23/1988,Resolution,891,85.7,1,3,56.2467,-154.2152,70,1.9,0.0122,0.02258,166.02,55
21720,Pacific cod,1988,88010011,8/23/1988,Resolution,892,85.7,1,3,56.2358,-154.1328,73,1.9,0.0122,0.02258,48.99,11
21720,Pacific cod,1988,88010012,8/23/1988,Resolution,947,85.7,1,3,56.0833,-154.6857,69,1.9,0.0122,0.02258,55.34,30
21720,Pacific cod,1988,88010013,8/23/1988,Resolution,946,85.7,1,3,56.0838,-154.8413,58,1.9,0.0122,0.02258,834.16,379
21720,Pacific cod,1988,88010014,8/23/1988,Resolution,973,85.7,1,3,56.0145,-154.9742,53,1.9,0.0122,0.02258,35.38,20
21720,Pacific cod,1988,88010015,8/24/1988,Resolution,1045,85.7,1,3,55.717,-155.4013,49,1.9,0.0122,0.02258,77.11,32
21720,Pacific cod,1988,88010016,8/24/1988,Resolution,1046,85.7,1,3,55.7342,-155.2367,70,1.9,0.0122,0.02258,57.15,28
21720,Pacific cod,1988,88010017,8/24/1988,Resolution,1022,85.7,1,3,55.8013,-155.1732,61,1.9,0.0122,0.02258,29.48,10
21720,Pacific cod,1988,88010018,8/24/1988,Resolution,999,85.7,1,3,55.8965,-155.0105,75,1.9,0.0122,0.02258,34.93,19
21720,Pacific cod,1988,88010019,8/24/1988,Resolution,1000,85.7,1,3,55.9037,-154.922,116,1.9,0.0122,0.02258,877.26,285
21720,Pacific cod,1988,88010020,8/25/1988,Resolution,881X,171.5,1,4,56.226,-155.7817,39,1.9,0.0122,0.02258,2.27,1
21720,Pacific cod,1988,88010021,8/25/1988,Resolution,815X,171.5,1,4,56.3658,-155.7808,51,1.9,0.0122,0.02258,548.4,228
21720,Pacific cod,1988,88010022,8/25/1988,Resolution,816X,171.5,1,4,56.3668,-155.6648,38,1.9,0.0122,0.02258,381.02,211
21720,Pacific cod,1988,88010023,8/25/1988,Resolution,781X,171.5,1,4,56.4788,-155.7122,86,0.9,0.0122,0.01129,26.31,9
21720,Pacific cod,1988,88010024,8/26/1988,Resolution,750X,171.5,1,4,56.568,-155.588,100,1.9,0.0122,0.02258,259,27
21720,Pacific cod,1988,88010025,8/26/1988,Resolution,677X,170.5,1,4,56.7018,-155.3485,92,1.9,0.0122,0.02258,24.49,9
21720,Pacific cod,1988,88010026,8/26/1988,Resolution,678X,171.5,1,4,56.7007,-155.2,44,1.9,0.0122,0.02258,162.39,62
21720,Pacific cod,1988,88010027,8/26/1988,Resolution,608X,171.5,1,4,56.8688,-155.1913,110,1.9,0.0122,0.02258,25.4,9
21720,Pacific cod,1988,88010028,8/27/1988,Resolution,ALG,19.9,1,4,56.8642,-154.055,31,1.9,0.0122,0.02258,66.68,25
21720,Pacific cod,1988,88010029,8/27/1988,Resolution,ALC,22.9,1,4,56.8315,-154.112,33,1.9,0.0122,0.02258,84.37,35
21720,Pacific cod,1988,88010030,8/27/1988,Resolution,ALA,3.1,1,4,56.7853,-154.1502,33,1.9,0.0122,0.02258,58.97,17
21720,Pacific cod,1988,88010031,8/27/1988,Resolution,ALJ,15.1,1,4,56.8872,-154.024,40,1.9,0.0122,0.02258,88.91,36
21720,Pacific cod,1988,88010032,8/27/1988,Resolution,ALK,9.9,1,4,56.9132,-153.961,39,1.9,0.0122,0.02258,45.36,16
21720,Pacific cod,1988,88010033,8/27/1988,Resolution,ALF,21.4,1,4,56.8593,-154.1403,31,1.9,0.0122,0.02258,4.54,1
21720,Pacific cod,1988,88010034,8/28/1988,Resolution,684B,10.3,1,4,56.7562,-154.2148,45,1.9,0.0122,0.02258,8.62,3
21720,Pacific cod,1988,88010035,8/28/1988,Resolution,684D,5.8,1,4,56.7285,-154.2207,20,1.1,0.0122,0.01355,2.72,5
21721,Juvenile Cod,1988,88010035,8/28/1988,Resolution,684D,5.8,1,4,56.7285,-154.2207,20,1.1,0.0122,0.01355,0.45,7
21720,Pacific cod,1988,88010036,8/28/1988,Resolution,684C,8.6,1,4,56.721,-154.3005,40,1.9,0.0122,0.02258,96.16,35
21720,Pacific cod,1988,88010037,8/28/1988,Resolution,683D,9.3,1,4,56.7158,-154.356,38,1.9,0.0122,0.02258,14.06,6
21720,Pacific cod,1988,88010038,8/28/1988,Resolution,683B,20.9,1,4,56.743,-154.3768,35,1.9,0.0122,0.02258,12.7,3
21720,Pacific cod,1988,88010039,8/28/1988,Resolution,684A,21.7,1,4,56.7593,-154.3065,29,1.9,0.0122,0.02258,20.41,6
21720,Pacific cod,1988,88010040,8/28/1988,Resolution,646D,37.4,1,4,56.7822,-154.337,31,1.9,0.0122,0.02258,23.59,8
21720,Pacific cod,1988,88010041,8/28/1988,Resolution,646B,16.5,1,4,56.8195,-154.3805,34,1.9,0.0122,0.02258,7.71,2
21720,Pacific cod,1988,88010042,8/29/1988,Resolution,646A,27.1,1,4,56.8273,-154.4255,36,1.9,0.0122,0.02258,7.26,2
21720,Pacific cod,1988,88010043,8/29/1988,Resolution,645,85.7,1,4,56.8475,-154.5085,38,1.9,0.0122,0.02258,49.9,17
21720,Pacific cod,1988,88010044,8/29/1988,Resolution,646C,27.9,1,4,56.8018,-154.4587,35,1.9,0.0122,0.02258,36.74,11
21720,Pacific cod,1988,88010045,8/29/1988,Resolution,683A,22.2,1,4,56.756,-154.4543,34,1.9,0.0122,0.02258,3.63,1
21720,Pacific cod,1988,88010046,8/29/1988,Resolution,682B,21.7,1,4,56.7503,-154.4988,39,1.9,0.0122,0.02258,20.41,6
21720,Pacific cod,1988,88010047,8/29/1988,Resolution,ALB,17.8,1,4,56.8175,-154.2417,20,1.9,0.0122,0.02258,77.11,37
21720,Pacific cod,1988,88010048,8/29/1988,Resolution,ALD,13,1,4,56.8463,-154.1938,30,1.9,0.0122,0.02258,1.36,1
21720,Pacific cod,1988,88010049,8/30/1988,Resolution,676X,171.5,1,4,56.6912,-155.4975,123,1.9,0.0122,0.02258,37.19,6
21720,Pacific cod,1988,88010050,8/30/1988,Resolution,712X,171.5,1,4,56.6483,-155.705,135,1.9,0.0122,0.02258,29.48,9
21720,Pacific cod,1988,88010051,8/30/1988,Resolution,748X,171.5,1,4,56.5687,-155.8235,135,1.9,0.0122,0.02258,34.47,10
21720,Pacific cod,1988,88010052,8/31/1988,Resolution,ALH,16.1,1,4,56.8685,-154.1367,35,1.9,0.0122,0.02258,65.77,22
21720,Pacific cod,1988,88010053,8/31/1988,Resolution,ALI,16.6,1,4,56.8835,-154.0883,44,1.9,0.0122,0.02258,231.79,89
21720,Pacific cod,1988,88010055,8/31/1988,Resolution,ALM,16.1,1,4,56.9365,-154.0182,50,1.9,0.0122,0.02258,4.54,5
21720,Pacific cod,1988,88010056,8/31/1988,Resolution,ALO,16.8,1,4,56.9655,-153.9942,71,1.5,0.0122,0.01806,130.64,38
21720,Pacific cod,1988,88010057,8/31/1988,Resolution,ALP,18.4,1,4,57.0155,-153.9697,88,1.9,0.0122,0.02258,37.19,11
21720,Pacific cod,1988,88010058,8/31/1988,Resolution,ALQ,14.4,1,4,57.0575,-153.9258,97,1.9,0.0122,0.02258,22.68,6
21720,Pacific cod,1988,88010060,9/1/1988,Resolution,683C,21.6,1,4,56.7077,-154.4257,10,0.9,0.0122,0.01129,0.45,35
21720,Pacific cod,1988,88010061,9/1/1988,Resolution,682D,21.8,1,4,56.7045,-154.5095,13,0.9,0.0122,0.01129,0.91,172
21720,Pacific cod,1988,88010062,9/1/1988,Resolution,725,85.7,1,3,56.6533,-153.8107,55,1.9,0.0122,0.02258,341.56,122
21720,Pacific cod,1988,88010063,9/1/1988,Resolution,726,85.7,1,3,56.619,-153.5883,62,1.9,0.0122,0.02258,209.11,72
21720,Pacific cod,1988,88010065,9/2/1988,Resolution,794,85.7,1,3,56.5072,-153.6152,74,1.9,0.0122,0.02258,159.21,62
21720,Pacific cod,1988,88010066,9/3/1988,Resolution,760,85.7,1,3,56.5662,-153.521,86,1.9,0.0122,0.02258,45.36,14
21720,Pacific cod,1988,88010067,9/3/1988,Resolution,761,85.7,1,3,56.5732,-153.3563,59,1.9,0.0122,0.02258,437.27,220
21720,Pacific cod,1988,88010068,9/3/1988,Resolution,728,85.7,1,3,56.6458,-153.3155,74,1.9,0.0122,0.02258,24.95,8
21720,Pacific cod,1988,88010069,9/21/1988,Resolution,533,85.7,1,2,57.1432,-152.745,79,1.9,0.0122,0.02258,27.67,10
21720,Pacific cod,1988,88010070,9/21/1988,Resolution,559,85.7,1,2,57.061,-152.7393,85,1.9,0.0122,0.02258,45.36,16
21720,Pacific cod,1988,88010071,9/21/1988,Resolution,560,85.7,1,2,57.0407,-152.5053,70,1.9,0.0122,0.02258,48.99,17
21720,Pacific cod,1988,88010072,9/21/1988,Resolution,534,85.7,1,2,57.1087,-152.5017,61,1.9,0.0122,0.02258,63.96,12
21720,Pacific cod,1988,88010073,9/21/1988,Resolution,KLI,21.4,1,2,57.212,-152.8377,64,1.9,0.0122,0.02258,15.88,4
21720,Pacific cod,1988,88010074,9/21/1988,Resolution,KLC,19.6,1,2,57.2632,-152.918,52,1.9,0.0122,0.02258,75.3,23
21720,Pacific cod,1988,88010075,9/22/1988,Resolution,535,85.7,1,2,57.1502,-152.4353,74,1.9,0.0122,0.02258,180.99,54
21720,Pacific cod,1988,88010076,9/22/1988,Resolution,561,85.7,1,2,57.0638,-152.4388,81,1.9,0.0122,0.02258,37.19,6
21720,Pacific cod,1988,88010077,9/22/1988,Resolution,589,85.7,1,2,56.9818,-152.4373,78,1.9,0.0122,0.02258,22.68,9
21720,Pacific cod,1988,88010079,9/22/1988,Resolution,621,85.7,1,2,56.8915,-152.427,86,1.9,0.0122,0.02258,26.31,9
21720,Pacific cod,1988,88010080,9/22/1988,Resolution,656,85.7,1,2,56.8245,-152.4425,92,1.9,0.0122,0.02258,9.07,2
21720,Pacific cod,1988,88010081,9/22/1988,Resolution,655,85.7,1,2,56.8142,-152.5803,73,1.9,0.0122,0.02258,13.61,4
21720,Pacific cod,1988,88010082,9/23/1988,Resolution,558,85.7,1,3,57.0595,-152.81,60,1.9,0.0122,0.02258,255.83,88
21720,Pacific cod,1988,88010083,9/23/1988,Resolution,587,85.7,1,2,56.9813,-152.7217,83,1.9,0.0122,0.02258,2.27,1
21720,Pacific cod,1988,88010084,9/23/1988,Resolution,619,85.7,1,2,56.9058,-152.7208,73,1.9,0.0122,0.02258,0,0
21720,Pacific cod,1988,88010085,9/23/1988,Resolution,620,85.7,1,2,56.9023,-152.6035,85,1.9,0.0122,0.02258,2.27,1
21720,Pacific cod,1988,88010086,9/23/1988,Resolution,588,85.7,1,2,56.9735,-152.5825,87,1.9,0.0122,0.02258,0,0
21720,Pacific cod,1988,88010087,9/23/1988,Resolution,KLD,18.2,1,2,57.252,-152.7358,16,1.1,0.0122,0.01355,10.43,234
21720,Pacific cod,1988,88010088,9/24/1988,Resolution,KLB,9.3,1,2,57.2943,-152.9792,45,1.9,0.0122,0.02258,78.47,23
21720,Pacific cod,1988,88010089,9/24/1988,Resolution,KLA,20.9,1,2,57.2935,-153.0677,52,1.9,0.0122,0.02258,17.24,4
21720,Pacific cod,1988,88010090,9/24/1988,Resolution,KLH,16.8,1,2,57.2162,-152.8952,62,1.9,0.0122,0.02258,28.58,15
21720,Pacific cod,1988,88010091,9/24/1988,Resolution,KLJ,6.5,1,2,57.182,-152.9388,36,0.9,0.0122,0.01129,0,0
21720,Pacific cod,1988,88010092,9/24/1988,Resolution,KLL,21.4,1,2,57.1915,-152.7847,74,1.9,0.0122,0.02258,13.15,5
21720,Pacific cod,1988,88010093,9/24/1988,Resolution,KLG,16.5,1,2,57.1853,-152.9663,67,1.9,0.0122,0.02258,23.59,4
21720,Pacific cod,1988,88010094,9/24/1988,Resolution,KLF,15.1,1,2,57.1778,-153.057,68,1.9,0.0122,0.02258,5.9,2
21720,Pacific cod,1988,88010095,9/24/1988,Resolution,KLE,8.2,1,2,57.1667,-153.1158,62,1.9,0.0122,0.02258,2.72,1
21720,Pacific cod,1988,88010096,9/25/1988,Resolution,614,61.2,1,3,56.9007,-153.4505,75,1.9,0.0122,0.02258,32.21,10
21720,Pacific cod,1988,88010097,9/25/1988,Resolution,615,99.5,1,3,56.881,-153.3777,77,1.9,0.0122,0.02258,28.12,6
21720,Pacific cod,1988,88010098,9/25/1988,Resolution,729,85.7,1,3,56.6702,-153.1765,82,1.9,0.0122,0.02258,15.88,4
21720,Pacific cod,1988,88010099,9/25/1988,Resolution,727,85.7,1,3,56.6563,-153.4622,84,1.9,0.0122,0.02258,34.02,7
21720,Pacific cod,1988,88010100,9/25/1988,Resolution,688,85.7,1,3,56.7038,-153.6258,84,1.9,0.0122,0.02258,40.37,12
21720,Pacific cod,1988,88010101,9/25/1988,Resolution,650,85.7,1,3,56.7785,-153.3613,77,1.7,0.0122,0.02032,47.63,15
21720,Pacific cod,1988,88010102,9/26/1988,Resolution,THA,15.1,1,3,56.8763,-153.6762,28,1.9,0.0122,0.02258,70.31,16
21720,Pacific cod,1988,88010103,9/26/1988,Resolution,THB,9.6,1,3,56.8945,-153.6065,49,1.9,0.0122,0.02258,75.3,28
21720,Pacific cod,1988,88010104,9/26/1988,Resolution,THC,24.7,1,3,56.9223,-153.4988,72,1.9,0.0122,0.02258,14.06,5
21720,Pacific cod,1988,88010105,9/26/1988,Resolution,THD,34.4,1,3,56.9465,-153.4638,72,1.9,0.0122,0.02258,38.56,25
21720,Pacific cod,1988,88010106,9/26/1988,Resolution,THG,21.1,1,3,56.9982,-153.4555,64,1.9,0.0122,0.02258,80.29,20
21720,Pacific cod,1988,88010107,9/26/1988,Resolution,THF,38.2,1,3,57.0052,-153.5735,45,1.9,0.0122,0.02258,30.39,7
21720,Pacific cod,1988,88010108,9/26/1988,Resolution,THI,21.6,1,3,57.0465,-153.5885,53,1.9,0.0122,0.02258,11.34,3
21720,Pacific cod,1988,88010109,9/27/1988,Resolution,THJ,17.8,1,3,57.0603,-153.4288,64,1.9,0.0122,0.02258,77.57,23
21720,Pacific cod,1988,88010110,9/27/1988,Resolution,THH,19.2,1,3,57.025,-153.3968,59,1.9,0.0122,0.02258,70.31,21
21720,Pacific cod,1988,88010111,9/27/1988,Resolution,THK,16.5,1,3,57.1383,-153.4855,56,1.9,0.0122,0.02258,11.79,3
21720,Pacific cod,1988,88010112,9/27/1988,Resolution,THL,9.3,1,3,57.1043,-153.3925,68,1.9,0.0122,0.02258,329.31,82
21720,Pacific cod,1988,88010113,9/27/1988,Resolution,THM,10.6,1,3,57.141,-153.3405,67,1.9,0.0122,0.02258,16.78,5
21720,Pacific cod,1988,88010114,9/27/1988,Resolution,THN,5.1,1,3,57.1577,-153.3287,68,1.5,0.0122,0.01806,44,13
21720,Pacific cod,1988,88010115,9/28/1988,Resolution,UGC,17.5,1,2,57.447,-152.7065,52,1.9,0.0122,0.02258,38.56,13
21720,Pacific cod,1988,88010116,9/28/1988,Resolution,UGB,5.8,1,2,57.4497,-152.7442,50,1.9,0.0122,0.02258,46.27,15
21720,Pacific cod,1988,88010117,9/28/1988,Resolution,UGA,21.6,1,2,57.4795,-152.8532,44,1.9,0.0122,0.02258,23.13,7
21720,Pacific cod,1988,88010118,9/29/1988,Resolution,UGI,22.3,1,2,57.3622,-152.5448,54,1.9,0.0122,0.02258,77.11,18
21720,Pacific cod,1988,88010119,9/29/1988,Resolution,UGM,16.8,1,2,57.3132,-152.527,54,1.9,0.0122,0.02258,14.06,4
21720,Pacific cod,1988,88010120,9/29/1988,Resolution,510,109.9,1,2,57.2515,-152.5528,49,1.9,0.0122,0.02258,7.71,3
21720,Pacific cod,1988,88010121,9/29/1988,Resolution,511,85.7,1,2,57.234,-152.4123,38,1.9,0.0122,0.02258,0,0
21720,Pacific cod,1988,88010122,9/29/1988,Resolution,486,57.3,1,2,57.2728,-152.3663,41,1.9,0.0122,0.02258,0.45,23
21720,Pacific cod,1988,88010123,9/29/1988,Resolution,UGJ,21,1,2,57.3368,-152.436,40,1.9,0.0122,0.02258,356.07,184
21720,Pacific cod,1988,88010124,9/29/1988,Resolution,UGD,11,1,2,57.421,-152.6245,54,1.9,0.0122,0.02258,9.07,3
21720,Pacific cod,1988,88010125,9/30/1988,Resolution,442,83.5,1,1,57.465,-151.9598,54,1.9,0.0122,0.02258,51.26,24
21720,Pacific cod,1988,88010126,9/30/1988,Resolution,443,83.5,1,1,57.5083,-151.7648,60,1.9,0.0122,0.02258,27.22,9
21720,Pacific cod,1988,88010127,9/30/1988,Resolution,420,83.3,1,1,57.5532,-151.8053,84,1.9,0.0122,0.02258,2.72,1
21720,Pacific cod,1988,88010128,9/30/1988,Resolution,421,83.3,1,1,57.5547,-151.6642,74,1.9,0.0122,0.02258,29.94,11
21720,Pacific cod,1988,88010129,9/30/1988,Resolution,444,83.5,1,1,57.4902,-151.6433,73,1.9,0.0122,0.02258,14.97,5
21720,Pacific cod,1988,88010130,10/1/1988,Resolution,UGE,12.7,1,2,57.4078,-152.6365,54,1.9,0.0122,0.02258,34.93,11
21720,Pacific cod,1988,88010131,10/1/1988,Resolution,UGF,15.8,1,2,57.3883,-152.5762,47,1.9,0.0122,0.02258,3.18,1
21720,Pacific cod,1988,88010132,10/1/1988,Resolution,UGG,11,1,2,57.3685,-152.4878,35,1.9,0.0122,0.02258,10.89,13
21720,Pacific cod,1988,88010133,10/1/1988,Resolution,UGH,17.5,1,2,57.3745,-152.387,19,1.9,0.0122,0.02258,0.91,121
21720,Pacific cod,1988,88010134,10/1/1988,Resolution,UGK,17.1,1,2,57.3517,-152.4125,28,1.9,0.0122,0.02258,0.45,40
21720,Pacific cod,1988,88010135,10/2/1988,Resolution,KZA,11.7,1,1,57.7638,-152.8885,23,1.9,0.0122,0.02258,50.8,18
21720,Pacific cod,1988,88010136,10/2/1988,Resolution,KZB,2.7,1,1,57.8085,-152.876,29,1.5,0.0122,0.01806,34.02,9
21720,Pacific cod,1988,88010137,10/2/1988,Resolution,KZC,12.3,1,1,57.8685,-152.7542,38,1.9,0.0122,0.02258,9.07,3
21720,Pacific cod,1988,88010138,10/2/1988,Resolution,KZD,23.7,1,1,57.8732,-152.7768,69,1.7,0.0122,0.02032,6.8,2
21720,Pacific cod,1988,88010139,10/2/1988,Resolution,KZE,25.8,1,1,57.9178,-152.7082,64,1.9,0.0122,0.02258,8.62,1
21720,Pacific cod,1988,88010140,10/2/1988,Resolution,KZF,20.1,1,1,57.9308,-152.7088,75,1.5,0.0122,0.01806,6.8,2
21720,Pacific cod,1988,88010141,10/2/1988,Resolution,KZG,21.2,1,1,57.9455,-152.6745,70,1.9,0.0122,0.02258,14.52,5
21720,Pacific cod,1988,88010142,10/2/1988,Resolution,KZJ,21.4,1,1,57.9622,-152.6603,74,1.9,0.0122,0.02258,18.14,5
21720,Pacific cod,1988,88010143,10/3/1988,Resolution,KZK,21.4,1,1,57.9687,-152.5537,92,1.9,0.0122,0.02258,257.64,78
21720,Pacific cod,1988,88010144,10/3/1988,Resolution,KZO,21.4,1,1,58.017,-152.5618,108,1.9,0.0122,0.02258,15.88,4
21720,Pacific cod,1988,88010145,10/3/1988,Resolution,MONX,75.5,1,1,58.0425,-152.5008,116,1.9,0.0122,0.02258,46.27,13
21720,Pacific cod,1988,88010146,10/3/1988,Resolution,KZR,10.8,1,1,58.1073,-152.6005,65,1.9,0.0122,0.02258,430.46,149
21720,Pacific cod,1988,88010147,10/3/1988,Resolution,KZS,3.1,1,1,58.1462,-152.5885,46,1.9,0.0122,0.02258,29.03,10
21720,Pacific cod,1988,88010148,10/3/1988,Resolution,MOPX,47.7,1,1,58.072,-152.2933,94,1.9,0.0122,0.02258,59.87,16
21720,Pacific cod,1988,88010149,10/3/1988,Resolution,MOLX,72.8,1,1,58.0615,-152.1715,85,1.9,0.0122,0.02258,13.61,3
21720,Pacific cod,1988,88010150,10/3/1988,Resolution,MOXX,42.5,1,1,58.1462,-152.235,90,1.9,0.0122,0.02258,14.06,4
21720,Pacific cod,1988,88010151,10/4/1988,Resolution,255,128.3,1,1,58.0567,-152.0303,69,1.9,0.0122,0.02258,29.48,9
21720,Pacific cod,1988,88010152,10/4/1988,Resolution,256,82.1,1,1,58.063,-151.8213,87,1.9,0.0122,0.02258,136.99,39
21720,Pacific cod,1988,88010153,10/4/1988,Resolution,257,82.1,1,1,58.0683,-151.6787,90,1.9,0.0122,0.02258,93.89,30
21720,Pacific cod,1988,88010154,10/4/1988,Resolution,284,82.4,1,1,57.9967,-151.7937,74,1.9,0.0122,0.02258,6.8,2
21720,Pacific cod,1988,88010155,10/4/1988,Resolution,283,132,1,1,57.9915,-152.0147,0,1.9,0.0122,0.02258,67.13,18
21720,Pacific cod,1988,88010156,10/4/1988,Resolution,MOGX,65.9,1,1,57.973,-152.1753,95,1.9,0.0122,0.02258,273.07,56
21720,Pacific cod,1988,88010157,10/12/1988,Resolution,CHG,32.8,1,1,57.6972,-152.2243,57,1.9,0.0122,0.02258,4.54,1
21720,Pacific cod,1988,88010158,10/12/1988,Resolution,369X,142.8,1,1,57.7298,-152.0503,64,1.9,0.0122,0.02258,0,0
21720,Pacific cod,1988,88010159,10/12/1988,Resolution,395,85.7,1,1,57.6787,-152.0332,101,1.9,0.0122,0.02258,38.56,10
21720,Pacific cod,1988,88010160,10/13/1988,Resolution,KUD,27.1,1,5,57.969,-153.1632,30,1.3,0.0122,0.01581,16.78,27
21720,Pacific cod,1988,88010161,10/13/1988,Resolution,KUE,11.3,1,5,58.0128,-153.2978,64,1.7,0.0122,0.02032,91.17,28
21720,Pacific cod,1988,88010162,10/13/1988,Resolution,KUF,11.3,1,5,58.0152,-153.3222,95,1.9,0.0122,0.02258,88.45,29
21720,Pacific cod,1988,88010163,10/13/1988,Resolution,KUH,7,1,5,57.9797,-153.3487,31,1.9,0.0122,0.02258,23.59,11
21721,Juvenile Cod,1988,88010163,10/13/1988,Resolution,KUH,7,1,5,57.9797,-153.3487,31,1.9,0.0122,0.02258,0.45,26
21720,Pacific cod,1988,88010164,10/13/1988,Resolution,KUG,15.4,1,5,58.02,-153.4112,70,1.1,0.0122,0.01355,8.16,2
21720,Pacific cod,1988,88010165,10/14/1988,Resolution,KUY,6.7,1,5,57.7678,-153.2057,38,1.9,0.0122,0.02258,24.95,7
21720,Pacific cod,1988,88010166,10/14/1988,Resolution,KUL,4.8,1,5,57.8453,-153.2277,50,1.9,0.0122,0.02258,11.34,3
21720,Pacific cod,1988,88010167,10/14/1988,Resolution,KUM,10.5,1,5,57.8693,-153.1642,38,1.9,0.0122,0.02258,8.16,4
21720,Pacific cod,1988,88010168,10/14/1988,Resolution,KUK,14.1,1,5,57.9045,-153.24,75,1.9,0.0122,0.02258,39.46,12
21720,Pacific cod,1988,88010169,10/14/1988,Resolution,KUJ,17,1,5,57.9305,-153.3182,90,1.9,0.0122,0.02258,53.07,15
21720,Pacific cod,1988,88010170,10/14/1988,Resolution,KUI,6.4,1,5,57.9668,-153.3963,135,1.9,0.0122,0.02258,39.46,12
21720,Pacific cod,1988,88010171,10/15/1988,Resolution,224,85.7,1,6,58.138,-153.8148,107,1.9,0.0122,0.02258,9.98,2
21720,Pacific cod,1988,88010172,10/15/1988,Resolution,223,85.7,1,6,58.1668,-153.9582,116,1.9,0.0122,0.02258,4.99,2
21720,Pacific cod,1988,88010173,10/15/1988,Resolution,222,103.2,1,6,58.145,-154.1982,62,1.9,0.0122,0.02258,173.73,104
21720,Pacific cod,1988,88010174,10/15/1988,Resolution,198,85.7,1,6,58.219,-153.946,124,1.9,0.0122,0.02258,15.88,6
21720,Pacific cod,1988,88010175,10/15/1988,Resolution,199,85.7,1,6,58.2153,-153.811,107,1.9,0.0122,0.02258,34.93,12
21720,Pacific cod,1988,88010176,10/15/1988,Resolution,200,85.7,1,6,58.2175,-153.6425,100,1.9,0.0122,0.02258,78.47,31
21720,Pacific cod,1988,88010177,10/16/1988,Resolution,171,33.4,1,6,58.2965,-154.262,62,1.9,0.0122,0.02258,10.43,3
21720,Pacific cod,1988,88010178,10/16/1988,Resolution,172,89.2,1,6,58.2997,-154.0293,65,1.9,0.0122,0.02258,15.88,7
21720,Pacific cod,1988,88010179,10/16/1988,Resolution,144,60.7,1,6,58.4353,-153.975,52,1.9,0.0122,0.02258,12.25,6
21720,Pacific cod,1988,88010180,10/16/1988,Resolution,145,85.7,1,6,58.4225,-153.8282,69,1.9,0.0122,0.02258,6.8,2
21720,Pacific cod,1988,88010181,10/16/1988,Resolution,173,85.7,1,6,58.3367,-153.82,112,1.9,0.0122,0.02258,22.68,11
21720,Pacific cod,1988,88010182,10/16/1988,Resolution,174,85.7,1,6,58.3037,-153.6537,97,1.9,0.0122,0.02258,40.82,15
21720,Pacific cod,1988,88010183,10/16/1988,Resolution,146,85.7,1,6,58.383,-153.6437,90,1.9,0.0122,0.02258,61.24,21
21720,Pacific cod,1988,88010184,10/16/1988,Resolution,147,85.7,1,6,58.3895,-153.4967,100,1.9,0.0122,0.02258,11.34,5
21720,Pacific cod,1988,88010185,10/17/1988,Resolution,121,85.7,1,6,58.4702,-153.1602,93,1.9,0.0122,0.02258,22.68,10
21720,Pacific cod,1988,88010186,10/17/1988,Resolution,120,85.7,1,6,58.4962,-153.307,95,1.9,0.0122,0.02258,34.47,16
21720,Pacific cod,1988,88010187,10/17/1988,Resolution,119,85.7,1,6,58.4983,-153.4518,80,1.9,0.0122,0.02258,34.02,19
21720,Pacific cod,1988,88010188,10/17/1988,Resolution,90,80.3,1,6,58.557,-153.4868,60,1.9,0.0122,0.02258,31.3,14
21720,Pacific cod,1988,88010189,10/17/1988,Resolution,91,85.7,1,6,58.5787,-153.3548,82,1.9,0.0122,0.02258,101.61,56
21720,Pacific cod,1988,88010190,10/17/1988,Resolution,118,85.7,1,6,58.5055,-153.6375,68,1.9,0.0122,0.02258,15.88,5
21720,Pacific cod,1988,88010191,10/17/1988,Resolution,117,97.8,1,6,58.4883,-153.759,45,1.9,0.0122,0.02258,22.23,9
21720,Pacific cod,1988,88010192,10/19/1988,Resolution,60,85.7,1,6,58.6337,-153.1667,71,1.9,0.0122,0.02258,1.81,3
21720,Pacific cod,1988,88010193,10/19/1988,Resolution,61,85.7,1,6,58.6342,-153.1633,93,1.9,0.0122,0.02258,252.2,108
21720,Pacific cod,1988,88010194,10/19/1988,Resolution,31,83.7,1,6,58.715,-153.158,96,1.9,0.0122,0.02258,15.88,7
21720,Pacific cod,1988,88010195,10/19/1988,Resolution,2,85.6,1,6,58.7897,-153.207,85,1.9,0.0122,0.02258,18.6,6
21720,Pacific cod,1988,88010196,10/19/1988,Resolution,3,85.7,1,6,58.8142,-152.9937,83,1.9,0.0122,0.02258,58.97,22
21720,Pacific cod,1988,88010197,10/20/1988,Resolution,PMA,15.1,1,5,58.2947,-152.9297,64,1.3,0.0122,0.01581,44.45,14
21720,Pacific cod,1988,88010198,10/20/1988,Resolution,MAA,10.5,1,5,58.213,-153.0965,69,1.9,0.0122,0.02258,4.54,1
21720,Pacific cod,1988,88010199,10/20/1988,Resolution,RAA,6.7,1,5,58.1358,-153.2317,63,1.9,0.0122,0.02258,14.06,4
21720,Pacific cod,1988,88010200,10/21/1988,Resolution,KUN,2.8,1,5,57.8275,-153.3905,66,1.1,0.0122,0.01355,9.98,4
21720,Pacific cod,1988,88010201,10/21/1988,Resolution,KUO,8,1,5,57.8455,-153.4447,82,1.9,0.0122,0.02258,11.34,5
21720,Pacific cod,1988,88010202,10/21/1988,Resolution,KUP,13.3,1,5,57.8568,-153.4845,92,1.9,0.0122,0.02258,34.93,10
21720,Pacific cod,1988,88010203,10/21/1988,Resolution,KUQ,20.6,1,5,57.8872,-153.5467,102,1.9,0.0122,0.02258,32.21,9
21720,Pacific cod,1988,88010204,10/21/1988,Resolution,KUR,7.9,1,5,57.8923,-153.7,24,1.9,0.0122,0.02258,494.42,189
21720,Pacific cod,1988,88010205,10/21/1988,Resolution,KUS,12.1,1,5,57.8695,-153.577,98,1.9,0.0122,0.02258,36.74,13
21720,Pacific cod,1988,88010206,10/21/1988,Resolution,KUT,9.4,1,5,57.8248,-153.5365,101,1.9,0.0122,0.02258,22.68,5
21720,Pacific cod,1988,88010207,10/22/1988,Resolution,KUX,9.6,1,5,57.7325,-153.3833,60,1.9,0.0122,0.02258,27.22,10
21720,Pacific cod,1988,88010208,10/22/1988,Resolution,KUU,13.7,1,5,57.7708,-153.4847,82,1.9,0.0122,0.02258,2.27,1
21720,Pacific cod,1988,88010209,10/22/1988,Resolution,KUW,5.2,1,5,57.6715,-153.5267,37,1.9,0.0122,0.02258,9.07,3
21720,Pacific cod,1988,88010210,10/22/1988,Resolution,KUV,4.1,1,5,57.7333,-153.5233,45,1.5,0.0122,0.01806,6.8,3
21720,Pacific cod,1988,88010211,10/23/1988,Resolution,UYHX,4.1,1,5,57.6525,-153.7375,50,1.9,0.0122,0.02258,0,0
21720,Pacific cod,1988,88010212,10/23/1988,Resolution,UYFX,22.1,1,5,57.6628,-153.8378,75,1.7,0.0122,0.02032,1.81,2
21720,Pacific cod,1988,88010213,10/23/1988,Resolution,UYEX,29.9,1,5,57.6418,-153.9282,100,1.9,0.0122,0.02258,29.48,8
21720,Pacific cod,1988,88010214,10/23/1988,Resolution,UYKX,13.9,1,5,57.5818,-153.9272,69,1.3,0.0122,0.01581,9.98,3
21720,Pacific cod,1988,88010215,10/23/1988,Resolution,UYMX,20.8,1,5,57.553,-153.9015,60,1.9,0.0122,0.02258,0,0
21720,Pacific cod,1988,88010216,10/23/1988,Resolution,UYQX,7.7,1,5,57.4888,-153.9133,80,1.9,0.0122,0.02258,11.34,4
21720,Pacific cod,1988,88010217,10/23/1988,Resolution,UYSX,2.2,1,5,57.4025,-153.8247,40,1.5,0.0122,0.01806,5.44,3
21720,Pacific cod,1989,89010001,6/17/1989,Resolution,CHE,20.6,1,1,57.6727,-152.4595,9,1.9,0.0122,0.02258,3.18,1
21720,Pacific cod,1989,89010002,6/17/1989,Resolution,CHA,5.5,1,1,57.6162,-152.4378,23,1.9,0.0122,0.02258,36.29,11
21720,Pacific cod,1989,89010003,6/17/1989,Resolution,CHB,7.9,1,1,57.6398,-152.4035,50,1.9,0.0122,0.02258,29.48,7
21720,Pacific cod,1989,89010004,6/17/1989,Resolution,CHF,12.7,1,1,57.683,-152.3415,78,1.9,0.0122,0.02258,20.41,6
21720,Pacific cod,1989,89010005,6/18/1989,Resolution,CHJ,11.3,1,1,57.731,-152.393,52,1.9,0.0122,0.02258,984.76,233
21720,Pacific cod,1989,89010006,6/18/1989,Resolution,CHK,8.6,1,1,57.719,-152.3225,82,1.7,0.0122,0.02032,18.14,4
21720,Pacific cod,1989,89010007,6/19/1989,Resolution,CHL,14.1,1,1,57.7233,-152.2647,95,1.9,0.0122,0.02258,6.8,4
21720,Pacific cod,1989,89010008,6/19/1989,Resolution,CHG,32.8,1,1,57.6963,-152.2275,54,1.9,0.0122,0.02258,19.05,9
21720,Pacific cod,1989,89010009,6/20/1989,Resolution,KZK,21.4,1,1,57.9722,-152.5752,96,1.9,0.0122,0.02258,29.03,11
21720,Pacific cod,1989,89010010,6/20/1989,Resolution,KZO,21.4,1,1,58.002,-152.5888,105,1.9,0.0122,0.02258,22.23,8
21720,Pacific cod,1989,89010011,6/20/1989,Resolution,KZJ,21.4,1,1,57.9732,-152.6428,74,1.9,0.0122,0.02258,20.87,8
21720,Pacific cod,1989,89010012,6/20/1989,Resolution,KZG,21.2,1,1,57.9412,-152.6165,75,1.9,0.0122,0.02258,36.29,10
21720,Pacific cod,1989,89010013,6/20/1989,Resolution,KZR,10.8,1,1,58.0977,-152.6347,65,1.9,0.0122,0.02258,115.67,36
21720,Pacific cod,1989,89010014,6/20/1989,Resolution,KZS,3.1,1,1,58.1288,-152.596,51,1.9,0.0122,0.02258,53.07,19
21720,Pacific cod,1989,89010015,6/21/1989,Resolution,KZF,20.1,1,1,57.9292,-152.7083,72,1.3,0.0122,0.01581,29.48,9
21720,Pacific cod,1989,89010016,6/21/1989,Resolution,KZE,25.8,1,1,57.9178,-152.6887,54,1.9,0.0122,0.02258,26.31,8
21720,Pacific cod,1989,89010017,6/21/1989,Resolution,KZC,12.3,1,1,57.853,-152.7672,32,1.9,0.0122,0.02258,6.35,2
21720,Pacific cod,1989,89010018,6/21/1989,Resolution,KZA,11.7,1,1,57.7557,-152.8988,20,1.9,0.0122,0.02258,0,0
21720,Pacific cod,1989,89010019,6/21/1989,Resolution,KZB,2.7,1,1,57.8013,-152.8778,30,1.3,0.0122,0.01581,6.8,25
21720,Pacific cod,1989,89010020,6/22/1989,Resolution,MONX,75.5,1,1,58.023,-152.5167,108,1.9,0.0122,0.02258,65.32,19
21720,Pacific cod,1989,89010021,6/22/1989,Resolution,MOPX,47.7,1,1,58.0698,-152.3027,96,1.9,0.0122,0.02258,18.14,10
21720,Pacific cod,1989,89010022,6/22/1989,Resolution,MOGX,65.9,1,1,57.9672,-152.163,95,1.9,0.0122,0.02258,22.23,5
21720,Pacific cod,1989,89010023,6/22/1989,Resolution,MOEX,36.2,1,1,57.95,-152.36,72,1.9,0.0122,0.02258,14.97,5
21720,Pacific cod,1989,89010024,6/22/1989,Resolution,MOLX,72.8,1,1,58.037,-152.2117,73,1.9,0.0122,0.02258,11.79,3
21720,Pacific cod,1989,89010025,6/23/1989,Resolution,MOXX,42.5,1,1,58.1498,-152.2525,92,1.9,0.0122,0.02258,0,0
21720,Pacific cod,1989,89010026,6/23/1989,Resolution,255,128.3,1,1,58.0653,-152.0702,80,1.9,0.0122,0.02258,43.09,14
21720,Pacific cod,1989,89010027,6/23/1989,Resolution,256,82.1,1,1,58.0672,-151.858,73,1.5,0.0122,0.01806,15.88,6
21720,Pacific cod,1989,89010028,7/3/1989,Resolution,283,132,1,1,58.0022,-151.9902,85,1.9,0.0122,0.02258,66.68,20
21720,Pacific cod,1989,89010029,7/3/1989,Resolution,284,82.4,1,1,57.9978,-151.8298,75,1.9,0.0122,0.02258,40.82,12
21720,Pacific cod,1989,89010030,7/3/1989,Resolution,257,82.1,1,1,58.0768,-151.6848,82,1.9,0.0122,0.02258,92.99,34
21720,Pacific cod,1989,89010031,7/4/1989,Resolution,369X,142.8,1,1,57.7007,-152.0568,71,1.9,0.0122,0.02258,31.75,10
21720,Pacific cod,1989,89010032,7/4/1989,Resolution,395,85.7,1,1,57.6845,-151.9582,64,1.9,0.0122,0.02258,29.48,9
21720,Pacific cod,1989,89010033,7/4/1989,Resolution,420,83.3,1,1,57.5795,-151.8178,81,1.9,0.0122,0.02258,91.17,29
21720,Pacific cod,1989,89010034,7/4/1989,Resolution,421,83.3,1,1,57.5618,-151.6823,63,1.9,0.0122,0.02258,101.15,32
21720,Pacific cod,1989,89010035,7/4/1989,Resolution,444,83.5,1,1,57.5013,-151.6415,88,1.9,0.0122,0.02258,21.77,7
21720,Pacific cod,1989,89010036,7/4/1989,Resolution,443,83.5,1,1,57.4567,-151.5333,65,1.9,0.0122,0.02258,9.53,3
21720,Pacific cod,1989,89010037,7/4/1989,Resolution,442,83.5,1,1,57.4873,-151.904,52,1.9,0.0122,0.02258,21.77,9
21720,Pacific cod,1989,89010038,7/5/1989,Resolution,UGI,22.3,1,2,57.3593,-152.5393,52,1.9,0.0122,0.02258,25.4,6
21720,Pacific cod,1989,89010039,7/5/1989,Resolution,UGM,16.8,1,2,57.325,-152.5265,52,1.9,0.0122,0.02258,14.06,4
21720,Pacific cod,1989,89010040,7/5/1989,Resolution,510,109.9,1,2,57.282,-152.5252,53,1.9,0.0122,0.02258,115.67,39
21720,Pacific cod,1989,89010041,7/5/1989,Resolution,511,85.7,1,2,57.1985,-152.3668,43,1.9,0.0122,0.02258,4.54,2
21720,Pacific cod,1989,89010042,7/5/1989,Resolution,486,57.3,1,2,57.2788,-152.4652,54,1.9,0.0122,0.02258,108.41,30
21720,Pacific cod,1989,89010043,7/5/1989,Resolution,UGJ,21,1,2,57.3295,-152.4328,39,1.9,0.0122,0.02258,14.52,6
21720,Pacific cod,1989,89010044,7/6/1989,Resolution,UGE,12.7,1,2,57.4105,-152.6052,54,1.9,0.0122,0.02258,28.12,9
21720,Pacific cod,1989,89010045,7/6/1989,Resolution,UGF,15.8,1,2,57.3943,-152.5543,43,1.9,0.0122,0.02258,0,0
21720,Pacific cod,1989,89010046,7/6/1989,Resolution,UGG,11,1,2,57.371,-152.471,30,1.9,0.0122,0.02258,15.88,7
21720,Pacific cod,1989,89010047,7/6/1989,Resolution,UGH,17.5,1,2,57.364,-152.358,20,1.9,0.0122,0.02258,4120.48,1527
21720,Pacific cod,1989,89010048,7/6/1989,Resolution,UGK,17.1,1,2,57.352,-152.364,23,1.9,0.0122,0.02258,13.61,9
21720,Pacific cod,1989,89010049,7/6/1989,Resolution,UGD,11,1,2,57.4185,-152.6025,52,1.9,0.0122,0.02258,4.99,2
21720,Pacific cod,1989,89010050,7/6/1989,Resolution,UGA,21.6,1,2,57.4628,-152.8937,36,1.9,0.0122,0.02258,63.96,16
21720,Pacific cod,1989,89010051,7/7/1989,Resolution,UGB,5.8,1,2,57.4565,-152.7532,49,1.9,0.0122,0.02258,102.51,34
21720,Pacific cod,1989,89010052,7/7/1989,Resolution,UGC,17.5,1,2,57.4453,-152.6988,50,1.9,0.0122,0.02258,32.21,10
21720,Pacific cod,1989,89010053,7/7/1989,Resolution,535,85.7,1,2,57.1488,-152.4125,74,1.9,0.0122,0.02258,58.51,22
21720,Pacific cod,1989,89010054,7/7/1989,Resolution,534,85.7,1,2,57.1002,-152.4705,73,1.9,0.0122,0.02258,48.53,19
21720,Pacific cod,1989,89010055,7/7/1989,Resolution,533,85.7,1,2,57.1228,-152.7002,78,1.9,0.0122,0.02258,22.68,11
21720,Pacific cod,1989,89010056,7/7/1989,Resolution,KLL,21.4,1,2,57.1873,-152.7377,74,1.9,0.0122,0.02258,122.02,42
21720,Pacific cod,1989,89010057,7/8/1989,Resolution,KLG,16.5,1,2,57.1798,-152.9978,66,1.9,0.0122,0.02258,45.36,14
21720,Pacific cod,1989,89010058,7/8/1989,Resolution,558,85.7,1,3,57.0547,-152.8065,63,1.9,0.0122,0.02258,265.81,95
21720,Pacific cod,1989,89010059,7/8/1989,Resolution,587,85.7,1,2,57.0547,-152.8065,81,1.9,0.0122,0.02258,3.18,1
21720,Pacific cod,1989,89010060,7/8/1989,Resolution,619,85.7,1,2,56.835,-152.5125,72,2.4,0.0122,0.02935,0,0
21720,Pacific cod,1989,89010061,7/8/1989,Resolution,620,85.7,1,2,56.9008,-152.6075,83,1.9,0.0122,0.02258,47.63,13
21720,Pacific cod,1989,89010062,7/8/1989,Resolution,655,85.7,1,2,56.8325,-152.5598,77,1.9,0.0122,0.02258,0,0
21720,Pacific cod,1989,89010063,7/8/1989,Resolution,588,85.7,1,2,56.9717,-152.6003,86,1.9,0.0122,0.02258,0,0
21720,Pacific cod,1989,89010064,7/9/1989,Resolution,559,85.7,1,2,57.078,-152.715,85,1.9,0.0122,0.02258,23.13,7
21720,Pacific cod,1989,89010065,7/9/1989,Resolution,560,85.7,1,2,57.0407,-152.5053,83,1.9,0.0122,0.02258,4.54,1
21720,Pacific cod,1989,89010066,7/9/1989,Resolution,561,85.7,1,2,57.0392,-152.4347,79,1.9,0.0122,0.02258,52.62,16
21720,Pacific cod,1989,89010067,7/9/1989,Resolution,589,85.7,1,2,56.9877,-152.4343,76,1.9,0.0122,0.02258,33.57,12
21720,Pacific cod,1989,89010068,7/9/1989,Resolution,621,85.7,1,2,56.9112,-152.4165,82,1.9,0.0122,0.02258,27.22,7
21720,Pacific cod,1989,89010069,7/9/1989,Resolution,656,85.7,1,2,56.836,-152.4122,94,1.9,0.0122,0.02258,0,0
21720,Pacific cod,1989,89010070,7/9/1989,Resolution,KLI,21.4,1,2,57.2132,-152.8013,70,1.9,0.0122,0.02258,2.27,1
21720,Pacific cod,1989,89010071,7/10/1989,Resolution,KLA,20.9,1,2,57.2952,-153.0722,53,1.9,0.0122,0.02258,31.3,9
21720,Pacific cod,1989,89010072,7/10/1989,Resolution,KLB,9.3,1,2,57.2957,-152.9778,44,1.9,0.0122,0.02258,76.2,22
21720,Pacific cod,1989,89010073,7/10/1989,Resolution,KLC,19.6,1,2,57.287,-152.9395,50,1.9,0.0122,0.02258,41.28,15
21720,Pacific cod,1989,89010074,7/10/1989,Resolution,KLD,18.2,1,2,57.2595,-152.7338,14,1.9,0.0122,0.02258,96.16,39
21720,Pacific cod,1989,89010075,7/10/1989,Resolution,KLH,16.8,1,2,57.2205,-152.8798,60,1.9,0.0122,0.02258,29.48,8
21720,Pacific cod,1989,89010076,7/10/1989,Resolution,KLJ,6.5,1,2,57.1827,-152.9375,33,0.9,0.0122,0.01129,0,0
21720,Pacific cod,1989,89010077,7/10/1989,Resolution,KLF,15.1,1,2,57.18,-153.0508,68,1.9,0.0122,0.02258,43.55,12
21720,Pacific cod,1989,89010078,7/10/1989,Resolution,KLE,8.2,1,2,57.1602,-153.137,62,1.9,0.0122,0.02258,97.98,21
21720,Pacific cod,1989,89010079,7/11/1989,Resolution,THN,5.1,1,3,57.1583,-153.3303,60,1.3,0.0122,0.01581,32.66,7
21720,Pacific cod,1989,89010080,7/11/1989,Resolution,THM,10.6,1,3,57.124,-153.3635,67,1.9,0.0122,0.02258,47.63,16
21720,Pacific cod,1989,89010081,7/11/1989,Resolution,THL,9.3,1,3,57.1163,-153.3712,67,1.9,0.0122,0.02258,45.36,11
21720,Pacific cod,1989,89010082,7/11/1989,Resolution,THJ,17.8,1,3,57.0675,-153.4248,63,1.9,0.0122,0.02258,7.26,2
21720,Pacific cod,1989,89010083,7/11/1989,Resolution,THK,16.5,1,3,57.1222,-153.4937,56,1.9,0.0122,0.02258,81.19,21
21720,Pacific cod,1989,89010084,7/11/1989,Resolution,THI,21.6,1,3,57.0458,-153.5818,51,1.9,0.0122,0.02258,5.44,2
21720,Pacific cod,1989,89010085,7/11/1989,Resolution,THG,21.1,1,3,56.9965,-153.4603,66,1.9,0.0122,0.02258,29.48,8
21720,Pacific cod,1989,89010086,7/11/1989,Resolution,THH,19.2,1,3,57.0263,-153.3952,51,1.9,0.0122,0.02258,5.44,1
21720,Pacific cod,1989,89010087,7/12/1989,Resolution,THF,38.2,1,3,57.003,-153.5785,42,1.7,0.0122,0.02032,62.14,18
21720,Pacific cod,1989,89010088,7/12/1989,Resolution,729,85.7,1,3,56.6688,-153.1732,82,1.9,0.0122,0.02258,121.11,35
21720,Pacific cod,1989,89010089,7/12/1989,Resolution,728,85.7,1,3,56.6442,-153.2908,80,1.9,0.0122,0.02258,24.95,8
21720,Pacific cod,1989,89010090,7/12/1989,Resolution,761,85.7,1,3,56.5935,-153.3462,79,1.9,0.0122,0.02258,30.39,10
21720,Pacific cod,1989,89010091,7/12/1989,Resolution,760,85.7,1,3,56.5738,-153.4587,64,1.9,0.0122,0.02258,112.49,45
21720,Pacific cod,1989,89010092,7/12/1989,Resolution,727,85.7,1,3,56.6322,-153.4588,79,1.9,0.0122,0.02258,34.02,10
21720,Pacific cod,1989,89010093,7/13/1989,Resolution,THA,15.1,1,3,56.8683,-153.7,28,1.9,0.0122,0.02258,14.97,4
21720,Pacific cod,1989,89010094,7/13/1989,Resolution,688,85.7,1,3,56.715,-153.603,85,1.9,0.0122,0.02258,159.21,42
21720,Pacific cod,1989,89010095,7/13/1989,Resolution,726,85.7,1,3,56.6668,-153.5662,85,1.9,0.0122,0.02258,142.88,45
21720,Pacific cod,1989,89010096,7/13/1989,Resolution,759,85.7,1,3,56.5835,-153.5837,77,1.9,0.0122,0.02258,48.53,15
21720,Pacific cod,1989,89010097,7/13/1989,Resolution,794,85.7,1,3,56.4978,-153.6133,78,1.9,0.0122,0.02258,63.96,23
21720,Pacific cod,1989,89010098,7/13/1989,Resolution,725,85.7,1,3,56.6495,-153.8028,53,1.9,0.0122,0.02258,152.41,43
21720,Pacific cod,1989,89010099,7/14/1989,Resolution,THB,9.6,1,3,56.8943,-153.6058,50,1.9,0.0122,0.02258,24.49,7
21720,Pacific cod,1989,89010100,7/14/1989,Resolution,THC,24.7,1,3,56.9183,-153.489,73,1.9,0.0122,0.02258,7.26,2
21720,Pacific cod,1989,89010101,7/14/1989,Resolution,614,61.2,1,3,56.9085,-153.4207,78,1.9,0.0122,0.02258,36.29,11
21720,Pacific cod,1989,89010102,7/14/1989,Resolution,615,99.5,1,3,56.8837,-153.3775,80,1.7,0.0122,0.02032,45.36,19
21720,Pacific cod,1989,89010103,7/14/1989,Resolution,THD,34.4,1,3,56.9302,-153.4527,73,1.9,0.0122,0.02258,38.1,11
21720,Pacific cod,1989,89010104,7/15/1989,Resolution,684D,5.8,1,4,56.7273,-154.2167,21,1.1,0.0122,0.01355,0,0
21720,Pacific cod,1989,89010105,7/15/1989,Resolution,684B,10.3,1,4,56.7588,-154.214,51,1.9,0.0122,0.02258,2.72,1
21720,Pacific cod,1989,89010106,7/15/1989,Resolution,684A,21.7,1,4,56.7625,-154.277,26,1.9,0.0122,0.02258,0,0
21720,Pacific cod,1989,89010107,7/15/1989,Resolution,684C,8.6,1,4,56.7227,-154.302,41,1.9,0.0122,0.02258,86.18,24
21720,Pacific cod,1989,89010108,7/15/1989,Resolution,683D,9.3,1,4,56.7143,-154.369,39,1.9,0.0122,0.02258,43.55,0
21720,Pacific cod,1989,89010109,7/15/1989,Resolution,683B,20.9,1,4,56.7343,-154.3702,36,1.9,0.0122,0.02258,3.63,1
21720,Pacific cod,1989,89010110,7/15/1989,Resolution,683A,22.2,1,4,56.7447,-154.415,36,1.9,0.0122,0.02258,18.14,4
21720,Pacific cod,1989,89010111,7/15/1989,Resolution,683C,21.6,1,4,56.7077,-154.4257,11,0.9,0.0122,0.01129,0,0
21720,Pacific cod,1989,89010112,7/15/1989,Resolution,682D,21.8,1,4,56.7043,-154.5088,12,0.9,0.0122,0.01129,0,0
21720,Pacific cod,1989,89010113,7/16/1989,Resolution,682B,21.7,1,4,56.7642,-154.495,39,1.9,0.0122,0.02258,24.95,5
21720,Pacific cod,1989,89010114,7/16/1989,Resolution,646C,27.9,1,4,56.7878,-154.485,36,1.9,0.0122,0.02258,39.92,11
21720,Pacific cod,1989,89010115,7/16/1989,Resolution,645,85.7,1,4,56.8208,-154.4933,37,1.9,0.0122,0.02258,3.18,1
21720,Pacific cod,1989,89010116,7/16/1989,Resolution,646A,27.1,1,4,56.836,-154.4822,37,1.9,0.0122,0.02258,0,0
21720,Pacific cod,1989,89010117,7/16/1989,Resolution,646B,16.5,1,4,56.8438,-154.3782,32,1.9,0.0122,0.02258,15.42,5
21720,Pacific cod,1989,89010118,7/16/1989,Resolution,646D,37.4,1,4,56.7927,-154.3618,30,1.9,0.0122,0.02258,0,0
21720,Pacific cod,1989,89010119,7/16/1989,Resolution,ALB,17.8,1,4,56.7955,-154.2295,15,0.9,0.0122,0.01129,0,0
21720,Pacific cod,1989,89010120,7/17/1989,Resolution,859,85.7,1,3,56.3295,-154.1237,46,1.3,0.0122,0.01581,64.41,24
21720,Pacific cod,1989,89010121,7/18/1989,Resolution,858,85.7,1,3,56.32,-154.2863,48,1.9,0.0122,0.02258,143.79,55
21720,Pacific cod,1989,89010122,7/18/1989,Resolution,891,85.7,1,3,56.239,-154.2308,68,1.9,0.0122,0.02258,147.87,52
21720,Pacific cod,1989,89010123,7/18/1989,Resolution,892,85.7,1,3,56.2323,-154.1327,74,1.9,0.0122,0.02258,20.41,9
21720,Pacific cod,1989,89010124,7/18/1989,Resolution,947,85.7,1,3,56.0902,-154.7005,69,1.9,0.0122,0.02258,128.37,78
21720,Pacific cod,1989,89010125,7/18/1989,Resolution,946,85.7,1,3,56.0822,-154.848,59,1.9,0.0122,0.02258,250.84,78
21720,Pacific cod,1989,89010126,7/18/1989,Resolution,973,85.7,1,3,56.013,-154.9763,54,1.9,0.0122,0.02258,324.32,163
21720,Pacific cod,1989,89010127,7/18/1989,Resolution,974,85.7,1,3,56.0012,-154.9388,69,1.9,0.0122,0.02258,1689.19,492
21720,Pacific cod,1989,89010128,7/18/1989,Resolution,975,85.7,1,3,56.005,-154.7812,105,1.9,0.0122,0.02258,194.14,65
21720,Pacific cod,1989,89010129,7/19/1989,Resolution,1000,85.7,1,3,55.9005,-154.9237,120,1.9,0.0122,0.02258,417.76,157
21720,Pacific cod,1989,89010130,7/19/1989,Resolution,999,85.7,1,3,55.8938,-155.0123,73,1.9,0.0122,0.02258,81.19,36
21720,Pacific cod,1989,89010131,7/19/1989,Resolution,1022,85.7,1,3,55.814,-155.1588,60,1.9,0.0122,0.02258,40.82,17
21720,Pacific cod,1989,89010132,7/19/1989,Resolution,1046,85.7,1,3,55.7472,-155.2238,70,1.9,0.0122,0.02258,186.88,78
21720,Pacific cod,1989,89010133,7/19/1989,Resolution,1045,85.7,1,3,55.7228,-155.369,51,1.9,0.0122,0.02258,93.44,38
21720,Pacific cod,1989,89010134,7/19/1989,Resolution,881X,171.5,1,4,56.2222,-155.7685,38,1.9,0.0122,0.02258,4.99,2
21720,Pacific cod,1989,89010135,7/19/1989,Resolution,815X,171.5,1,4,56.3138,-155.7762,42,1.9,0.0122,0.02258,195.95,100
21720,Pacific cod,1989,89010136,7/19/1989,Resolution,816X,171.5,1,4,56.5692,-155.3125,39,1.9,0.0122,0.02258,863.65,387
21720,Pacific cod,1989,89010137,7/19/1989,Resolution,781X,171.5,1,4,56.4762,-155.698,77,0.9,0.0122,0.01129,300.28,95
21720,Pacific cod,1989,89010139,7/20/1989,Resolution,748X,171.5,1,4,56.5625,-155.7702,129,1.9,0.0122,0.02258,3.63,1
21720,Pacific cod,1989,89010140,7/20/1989,Resolution,712X,171.5,1,4,56.6413,-155.6257,126,1.9,0.0122,0.02258,3.63,2
21720,Pacific cod,1989,89010141,7/20/1989,Resolution,676X,171.5,1,4,56.6558,-155.4937,110,1.9,0.0122,0.02258,9.07,4
21720,Pacific cod,1989,89010142,7/20/1989,Resolution,677X,170.5,1,4,56.6823,-155.3422,69,1.9,0.0122,0.02258,41.28,9
21720,Pacific cod,1989,89010144,7/20/1989,Resolution,608X,171.5,1,4,56.804,-155.1587,61,1.9,0.0122,0.02258,9.53,3
21720,Pacific cod,1989,89010145,7/21/1989,Resolution,ALD,13,1,4,56.8315,-154.2005,29,1.9,0.0122,0.02258,60.33,17
21720,Pacific cod,1989,89010146,7/21/1989,Resolution,ALA,3.1,1,4,56.7847,-154.1482,32,1.9,0.0122,0.02258,126.55,36
21720,Pacific cod,1989,89010147,7/21/1989,Resolution,ALC,22.9,1,4,56.8107,-154.1255,39,1.9,0.0122,0.02258,243.13,66
21720,Pacific cod,1989,89010148,7/21/1989,Resolution,ALG,19.9,1,4,56.8573,-154.0602,31,1.9,0.0122,0.02258,77.11,25
21720,Pacific cod,1989,89010149,7/21/1989,Resolution,ALF,21.4,1,4,56.845,-154.1703,31,1.9,0.0122,0.02258,44,15
21720,Pacific cod,1989,89010150,7/22/1989,Resolution,ALH,16.1,1,4,56.862,-154.1488,32,1.9,0.0122,0.02258,37.65,10
21720,Pacific cod,1989,89010151,7/22/1989,Resolution,ALI,16.6,1,4,56.8875,-154.086,44,1.9,0.0122,0.02258,88.45,26
21720,Pacific cod,1989,89010152,7/22/1989,Resolution,ALL,8.2,1,4,56.9122,-154.069,55,1.9,0.0122,0.02258,89.81,25
21720,Pacific cod,1989,89010153,7/22/1989,Resolution,ALJ,15.1,1,4,56.8915,-154.0185,38,1.9,0.0122,0.02258,99.79,26
21720,Pacific cod,1989,89010154,7/22/1989,Resolution,ALK,9.9,1,4,56.912,-153.9663,37,1.9,0.0122,0.02258,137.89,38
21720,Pacific cod,1989,89010155,7/22/1989,Resolution,ALM,16.1,1,4,56.9198,-153.9723,35,1.5,0.0122,0.01806,67.13,18
21720,Pacific cod,1989,89010156,7/22/1989,Resolution,ALO,16.8,1,4,56.9672,-153.999,70,1.9,0.0122,0.02258,42.18,9
21720,Pacific cod,1989,89010157,7/23/1989,Resolution,ALP,18.4,1,4,57.008,-153.9738,90,1.9,0.0122,0.02258,44.91,10
21720,Pacific cod,1989,89010158,7/23/1989,Resolution,ALQ,14.4,1,4,57.0495,-153.9377,93,1.9,0.0122,0.02258,45.36,13
21720,Pacific cod,1989,89010159,7/23/1989,Resolution,ALR,13.4,1,4,57.0988,-153.8332,66,1.9,0.0122,0.02258,77.57,21
21720,Pacific cod,1989,89010160,7/28/1989,Resolution,KUD,27.1,1,5,57.9717,-153.171,23,1.3,0.0122,0.01581,24.04,12
21721,Juvenile Cod,1989,89010160,7/28/1989,Resolution,KUD,27.1,1,5,57.9717,-153.171,23,1.3,0.0122,0.01581,0.91,8
21720,Pacific cod,1989,89010161,7/28/1989,Resolution,KUE,11.3,1,5,58.0088,-153.302,64,1.3,0.0122,0.01581,77.11,44
21720,Pacific cod,1989,89010162,7/28/1989,Resolution,KUF,11.3,1,5,58.0217,-153.3148,70,1.9,0.0122,0.02258,59.42,22
21720,Pacific cod,1989,89010163,7/28/1989,Resolution,KUG,15.4,1,5,58.0313,-153.4443,43,1.9,0.0122,0.02258,98.43,45
21720,Pacific cod,1989,89010164,7/28/1989,Resolution,KUI,6.4,1,5,57.9663,-153.3982,130,1.9,0.0122,0.02258,14.97,3
21720,Pacific cod,1989,89010166,7/29/1989,Resolution,KUM,10.5,1,5,57.8545,-153.1322,38,1.9,0.0122,0.02258,20.87,6
21720,Pacific cod,1989,89010167,7/29/1989,Resolution,KUK,14.1,1,5,57.9025,-153.2457,74,1.9,0.0122,0.02258,85.73,30
21720,Pacific cod,1989,89010168,7/29/1989,Resolution,KUJ,17,1,5,57.9295,-153.3118,90,1.9,0.0122,0.02258,34.02,11
21720,Pacific cod,1989,89010169,7/29/1989,Resolution,KUL,4.8,1,5,57.8448,-153.228,53,1.9,0.0122,0.02258,24.95,7
21720,Pacific cod,1989,89010170,7/29/1989,Resolution,KUY,6.7,1,5,57.7795,-153.2058,39,1.9,0.0122,0.02258,18.14,5
21720,Pacific cod,1989,89010171,7/29/1989,Resolution,KUN,2.8,1,5,57.8262,-153.3938,68,1.1,0.0122,0.01355,34.02,15
21720,Pacific cod,1989,89010172,7/29/1989,Resolution,KUO,8,1,5,57.8353,-153.4288,81,1.9,0.0122,0.02258,132.45,43
21720,Pacific cod,1989,89010173,7/30/1989,Resolution,KUW,5.2,1,5,57.6632,-153.5238,34,1.9,0.0122,0.02258,28.12,9
21720,Pacific cod,1989,89010174,7/30/1989,Resolution,KUV,4.1,1,5,57.7258,-153.5367,47,1.9,0.0122,0.02258,16.33,8
21720,Pacific cod,1989,89010175,7/30/1989,Resolution,KUU,13.7,1,5,57.763,-153.5183,88,1.9,0.0122,0.02258,68.95,21
21720,Pacific cod,1989,89010176,7/30/1989,Resolution,KUX,9.6,1,5,57.7533,-153.4043,63,1.9,0.0122,0.02258,32.21,15
21720,Pacific cod,1989,89010177,7/30/1989,Resolution,KUT,9.4,1,5,57.8052,-153.5222,95,1.9,0.0122,0.02258,140.62,48
21720,Pacific cod,1989,89010178,7/30/1989,Resolution,KUS,12.1,1,5,57.8662,-153.5643,103,1.9,0.0122,0.02258,51.71,20
21720,Pacific cod,1989,89010179,7/30/1989,Resolution,KUR,7.9,1,5,57.8877,-153.6957,22,1.9,0.0122,0.02258,145.61,71
21721,Juvenile Cod,1989,89010179,7/30/1989,Resolution,KUR,7.9,1,5,57.8877,-153.6957,22,1.9,0.0122,0.02258,0.91,20
21720,Pacific cod,1989,89010180,7/30/1989,Resolution,KUQ,20.6,1,5,57.8888,-153.5512,105,2,0.0122,0.02484,15.88,7
21720,Pacific cod,1989,89010181,7/31/1989,Resolution,KUP,13.3,1,5,57.8503,-153.4765,87,1.9,0.0122,0.02258,22.68,9
21720,Pacific cod,1989,89010182,7/31/1989,Resolution,UYBX,21.5,1,5,57.7323,-154.002,63,1.9,0.0122,0.02258,29.94,19
21720,Pacific cod,1989,89010184,7/31/1989,Resolution,UYEX,29.9,1,5,57.643,-153.9308,100,1.9,0.0122,0.02258,45.36,13
21720,Pacific cod,1989,89010185,7/31/1989,Resolution,UYFX,22.1,1,5,57.6605,-153.8375,77,1.9,0.0122,0.02258,45.81,14
21720,Pacific cod,1989,89010186,8/1/1989,Resolution,UYHX,4.1,1,5,57.6472,-153.7198,47,1.9,0.0122,0.02258,27.22,10
21720,Pacific cod,1989,89010187,8/1/1989,Resolution,UYKX,13.9,1,5,57.5852,-153.9183,67,1.5,0.0122,0.01806,17.24,5
21720,Pacific cod,1989,89010188,8/1/1989,Resolution,UYO,3.4,1,5,57.5548,-153.8018,42,1.9,0.0122,0.02258,32.21,10
21720,Pacific cod,1989,89010189,8/1/1989,Resolution,UYMX,20.8,1,5,57.5552,-153.9025,60,1.9,0.0122,0.02258,5.44,2
21720,Pacific cod,1989,89010190,8/1/1989,Resolution,UYQX,7.7,1,5,57.489,-153.9135,89,1.9,0.0122,0.02258,45.81,17
21720,Pacific cod,1989,89010191,8/1/1989,Resolution,UYSX,2.2,1,5,57.4012,-153.826,39,1.3,0.0122,0.01581,32.21,20
21720,Pacific cod,1989,89010192,8/2/1989,Resolution,224,85.7,1,6,58.1412,-153.8008,106,1.9,0.0122,0.02258,24.95,7
21720,Pacific cod,1989,89010193,8/2/1989,Resolution,223,85.7,1,6,58.1567,-153.9323,113,1.9,0.0122,0.02258,9.07,2
21720,Pacific cod,1989,89010194,8/2/1989,Resolution,222,103.2,1,6,58.1495,-154.2127,53,1.9,0.0122,0.02258,114.31,38
21720,Pacific cod,1989,89010195,8/2/1989,Resolution,198,85.7,1,6,58.2258,-153.9325,123,1.9,0.0122,0.02258,4.54,1
21720,Pacific cod,1989,89010196,8/2/1989,Resolution,199,85.7,1,6,58.2207,-153.8078,107,1.9,0.0122,0.02258,47.63,15
21720,Pacific cod,1989,89010197,8/2/1989,Resolution,172,89.2,1,6,58.3008,-154.0253,63,1.9,0.0122,0.02258,77.57,41
21720,Pacific cod,1989,89010199,8/3/1989,Resolution,171,33.4,1,6,58.2923,-154.2695,60,1.9,0.0122,0.02258,37.2,13
21720,Pacific cod,1989,89010200,8/3/1989,Resolution,173,85.7,1,6,58.3218,-153.8132,112,1.9,0.0122,0.02258,7.26,2
21720,Pacific cod,1989,89010201,8/3/1989,Resolution,200,85.7,1,6,58.2625,-153.6557,99,1.9,0.0122,0.02258,278.96,91
21720,Pacific cod,1989,89010202,8/4/1989,Resolution,174,85.7,1,6,58.299,-153.6512,97,1.9,0.0122,0.02258,4.54,2
21720,Pacific cod,1989,89010203,8/4/1989,Resolution,147,85.7,1,6,58.3822,-153.5058,97,1.9,0.0122,0.02258,36.29,12
21720,Pacific cod,1989,89010204,8/4/1989,Resolution,119,85.7,1,6,58.4727,-153.4868,83,1.9,0.0122,0.02258,54.89,22
21720,Pacific cod,1989,89010205,8/4/1989,Resolution,118,85.7,1,6,58.4952,-153.5933,71,1.9,0.0122,0.02258,77.11,30
21720,Pacific cod,1989,89010206,8/4/1989,Resolution,146,85.7,1,6,58.4368,-153.6672,71,1.9,0.0122,0.02258,28.12,15
21720,Pacific cod,1989,89010207,8/4/1989,Resolution,145,85.7,1,6,58.4278,-153.8075,77,1.9,0.0122,0.02258,80.74,29
21720,Pacific cod,1989,89010208,8/4/1989,Resolution,144,60.7,1,6,58.4282,-153.9888,55,1.9,0.0122,0.02258,40.82,20
21720,Pacific cod,1989,89010209,8/5/1989,Resolution,117,97.8,1,6,58.4523,-153.8025,52,1.9,0.0122,0.02258,190.51,48
21720,Pacific cod,1989,89010210,8/5/1989,Resolution,90,80.3,1,6,58.5407,-153.5278,63,1.9,0.0122,0.02258,52.16,19
21720,Pacific cod,1989,89010211,8/5/1989,Resolution,91,85.7,1,6,58.579,-153.3647,77,1.9,0.0122,0.02258,37.2,21
21720,Pacific cod,1989,89010212,8/5/1989,Resolution,120,85.7,1,6,58.5078,-153.3645,94,1.9,0.0122,0.02258,58.97,25
21720,Pacific cod,1989,89010213,8/5/1989,Resolution,121,85.7,1,6,58.4763,-153.1925,93,1.9,0.0122,0.02258,27.22,9
21720,Pacific cod,1989,89010214,8/5/1989,Resolution,61,85.7,1,6,58.6327,-153.1678,94,1.9,0.0122,0.02258,211.38,89
21720,Pacific cod,1989,89010216,8/6/1989,Resolution,31,83.7,1,6,58.7147,-153.2237,86,1.9,0.0122,0.02258,59.42,31
21720,Pacific cod,1989,89010217,8/6/1989,Resolution,2,85.6,1,6,58.7957,-153.2138,72,1.9,0.0122,0.02258,88.45,31
21720,Pacific cod,1989,89010218,8/6/1989,Resolution,3,85.7,1,6,58.814,-153.0343,79,1.9,0.0122,0.02258,4.99,2
21720,Pacific cod,1989,89010219,8/6/1989,Resolution,PMA,15.1,1,5,58.2913,-152.9622,69,1.9,0.0122,0.02258,43.09,12
21720,Pacific cod,1989,89010220,8/6/1989,Resolution,MAA,10.5,1,5,58.2097,-153.096,70,1.9,0.0122,0.02258,17.69,6
21720,Pacific cod,1989,89010221,8/7/1989,Resolution,RAA,6.7,1,5,58.1303,-153.2265,62,1.9,0.0122,0.02258,67.13,22
21720,Pacific cod,1989,89020222,8/25/1989,Royal Baron,4304,16.9,6,4,56.5397,-157.6028,55,1.9,0.0122,0.02258,195.05,73
21720,Pacific cod,1989,89020224,8/25/1989,Royal Baron,4302,18.2,6,4,56.5203,-157.6393,57,1.9,0.0122,0.02258,22.68,9
21720,Pacific cod,1989,89020225,8/25/1989,Royal Baron,4301,21.4,6,4,56.5492,-157.6832,41,1.9,0.0122,0.02258,22.68,9
21720,Pacific cod,1989,89020226,8/25/1989,Royal Baron,4298,19,6,4,56.5302,-157.7125,52,1.9,0.0122,0.02258,279.42,215
21720,Pacific cod,1989,89020229,8/26/1989,Royal Baron,4296,10.3,6,4,56.605,-157.7802,32,1.9,0.0122,0.02258,18.6,6
21720,Pacific cod,1989,89020230,8/26/1989,Royal Baron,4290,21.3,6,4,56.6118,-157.8142,15,1.9,0.0122,0.02258,7.71,4
21720,Pacific cod,1989,89020231,8/26/1989,Royal Baron,4287,28.5,6,3,56.3937,-157.915,117,1.9,0.0122,0.02258,193.69,54
21720,Pacific cod,1989,89020232,8/26/1989,Royal Baron,4286,21.4,6,3,56.4185,-157.9127,93,1.9,0.0122,0.02258,47.63,13
21720,Pacific cod,1989,89020234,8/27/1989,Royal Baron,4279,21.4,6,3,56.3567,-158.0308,77,0.9,0.0122,0.01129,53.07,22
21720,Pacific cod,1989,89020235,8/27/1989,Royal Baron,4278,21.4,6,3,56.376,-158.0267,105,1.9,0.0122,0.02258,200.04,66
21720,Pacific cod,1989,89020236,8/27/1989,Royal Baron,4277,21.4,6,3,56.4168,-158.0552,91,1.9,0.0122,0.02258,108.86,37
21720,Pacific cod,1989,89020237,8/27/1989,Royal Baron,4272,15.9,6,3,56.482,-158.0945,50,1.9,0.0122,0.02258,61.24,21
21720,Pacific cod,1989,89020238,8/28/1989,Royal Baron,4274,21.4,6,3,56.4068,-158.1277,95,1.9,0.0122,0.02258,112.95,40
21720,Pacific cod,1989,89020239,8/28/1989,Royal Baron,4312,21.9,6,3,56.249,-158.1432,60,1.7,0.0122,0.02032,31.75,16
21720,Pacific cod,1989,89020240,8/28/1989,Royal Baron,4270,17.1,6,3,56.254,-158.1888,54,1.9,0.0122,0.02258,4.54,2
21720,Pacific cod,1989,89020241,8/28/1989,Royal Baron,4271,10,6,3,56.2445,-158.1575,53,1.9,0.0122,0.02258,36.29,9
21720,Pacific cod,1989,89020242,8/29/1989,Royal Baron,4265,6.6,6,3,56.182,-158.31,30,1.9,0.0122,0.02258,2.27,1
21720,Pacific cod,1989,89020243,8/29/1989,Royal Baron,4964,9.6,6,3,56.2157,-158.3608,37,1.9,0.0122,0.02258,15.88,7
21720,Pacific cod,1989,89020244,8/29/1989,Royal Baron,4264,19.7,6,3,56.2245,-158.286,40,1.9,0.0122,0.02258,19.96,5
21720,Pacific cod,1989,89020245,8/29/1989,Royal Baron,4267,21.4,6,3,56.4112,-158.2007,79,1.9,0.0122,0.02258,153.32,49
21720,Pacific cod,1989,89020246,8/29/1989,Royal Baron,4266,19.6,6,3,56.4182,-158.2083,87,1.9,0.0122,0.02258,99.79,32
21720,Pacific cod,1989,89020250,8/30/1989,Royal Baron,4053,85.7,6,2,55.5995,-158.7398,86,1.9,0.0122,0.02258,504.4,241
21720,Pacific cod,1989,89020251,9/1/1989,Royal Baron,311C,16.2,2,5,55.4345,-160.59,71,1.9,0.0122,0.02258,27.22,7
21720,Pacific cod,1989,89020252,9/1/1989,Royal Baron,311B,19.4,2,5,55.3818,-160.5917,75,1.9,0.0122,0.02258,109.32,26
21720,Pacific cod,1989,89020253,9/1/1989,Royal Baron,BAF,9.4,2,5,55.4998,-160.5757,45,1.9,0.0122,0.02258,66.68,15
21720,Pacific cod,1989,89020254,9/1/1989,Royal Baron,BAC,16.9,2,5,55.529,-160.6233,49,1.9,0.0122,0.02258,36.29,13
21720,Pacific cod,1989,89020255,9/1/1989,Royal Baron,BAD,8.3,2,5,55.5053,-160.5855,47,1.9,0.0122,0.02258,68.04,24
21720,Pacific cod,1989,89020256,9/2/1989,Royal Baron,BAA,12,2,5,55.5397,-160.7378,15,1.9,0.0122,0.02258,22.68,11
21720,Pacific cod,1989,89020257,9/2/1989,Royal Baron,BAE,12.7,2,5,55.499,-160.6212,57,1.9,0.0122,0.02258,12.7,6
21720,Pacific cod,1989,89020258,9/2/1989,Royal Baron,312A,22.3,2,5,55.4133,-160.5992,47,1.9,0.0122,0.02258,261.27,128
21720,Pacific cod,1989,89020259,9/2/1989,Royal Baron,329C,21.4,2,5,55.4302,-160.4937,73,1.9,0.0122,0.02258,13.15,3
21720,Pacific cod,1989,89020261,9/3/1989,Royal Baron,332B,42.9,2,7,55.2392,-160.4068,109,1.5,0.0122,0.01806,117.48,49
21720,Pacific cod,1989,89020262,9/3/1989,Royal Baron,354,85.7,2,7,55.0588,-160.334,52,1.9,0.0122,0.02258,299.37,66
21720,Pacific cod,1989,89020263,9/3/1989,Royal Baron,353,86.1,2,7,55.1153,-160.2943,75,1.9,0.0122,0.02258,56.7,32
21720,Pacific cod,1989,89020264,9/3/1989,Royal Baron,393,42,2,7,55.1908,-159.9848,41,1.9,0.0122,0.02258,2.27,3
21720,Pacific cod,1989,89020265,9/3/1989,Royal Baron,373B,20.5,2,7,55.15,-160.0667,41,1.9,0.0122,0.02258,125.65,37
21720,Pacific cod,1989,89020266,9/4/1989,Royal Baron,371,76,2,7,55.2902,-160.169,84,1.9,0.0122,0.02258,79.38,32
21720,Pacific cod,1989,89020267,9/4/1989,Royal Baron,368A,43.9,2,5,55.5475,-160.1092,96,1.9,0.0122,0.02258,29.48,9
21720,Pacific cod,1989,89020268,9/4/1989,Royal Baron,389,86.3,2,5,55.5548,-160.0085,96,1.9,0.0122,0.02258,11.79,5
21720,Pacific cod,1989,89020269,9/4/1989,Royal Baron,410,87.1,2,6,55.564,-159.8575,70,1.9,0.0122,0.02258,108.86,28
21720,Pacific cod,1989,89020270,9/4/1989,Royal Baron,388,87.7,2,6,55.6667,-159.9235,69,1.9,0.0122,0.02258,19.96,4
21720,Pacific cod,1989,89020272,9/5/1989,Royal Baron,STE,15.5,2,6,55.752,-159.7463,60,1.1,0.0122,0.01355,11.34,4
21720,Pacific cod,1989,89020273,9/5/1989,Royal Baron,STB,18.9,2,6,55.7872,-159.7572,63,1.9,0.0122,0.02258,20.41,6
21720,Pacific cod,1989,89020274,9/5/1989,Royal Baron,STA,21,2,6,55.8193,-159.801,59,1.9,0.0122,0.02258,29.03,12
21720,Pacific cod,1989,89020275,9/5/1989,Royal Baron,STD,22.4,2,6,55.7817,-159.8252,64,1.9,0.0122,0.02258,19.5,6
21720,Pacific cod,1989,89020276,9/5/1989,Royal Baron,409,69.5,2,6,55.6465,-159.79,71,1.9,0.0122,0.02258,13.61,6
21720,Pacific cod,1989,89020277,9/5/1989,Royal Baron,4009,85.7,6,1,55.6558,-159.4182,61,1.9,0.0122,0.02258,0,0
21720,Pacific cod,1989,89020278,9/5/1989,Royal Baron,4008,42.1,6,1,55.7475,-159.421,55,1.9,0.0122,0.02258,13.61,4
21720,Pacific cod,1989,89020279,9/5/1989,Royal Baron,4007,37.2,6,1,55.7732,-159.4083,45,1.9,0.0122,0.02258,9.07,3
21720,Pacific cod,1989,89020280,9/6/1989,Royal Baron,4900,13.1,6,1,55.849,-159.4865,28,1.9,0.0122,0.02258,0,0
21720,Pacific cod,1989,89020281,9/6/1989,Royal Baron,4000,18.6,6,1,55.8035,-159.4868,38,1.9,0.0122,0.02258,22.68,7
21720,Pacific cod,1989,89020282,9/6/1989,Royal Baron,4915,51,6,1,55.8677,-159.1895,31,1.9,0.0122,0.02258,89.81,52
21720,Pacific cod,1989,89020283,9/6/1989,Royal Baron,4024,57.6,6,2,55.8857,-159.1132,47,1.9,0.0122,0.02258,9.07,3
21720,Pacific cod,1989,89020284,9/6/1989,Royal Baron,4036,64.9,6,2,55.8645,-158.915,69,1.9,0.0122,0.02258,37.2,10
21720,Pacific cod,1989,89020285,9/11/1989,Royal Baron,BVB,14,2,5,55.4648,-160.8765,25,1.9,0.0122,0.02258,0.45,26
21720,Pacific cod,1989,89020286,9/11/1989,Royal Baron,BVA,13.5,2,5,55.4833,-160.9023,35,1.9,0.0122,0.02258,1658.8,763
21720,Pacific cod,1989,89020288,9/12/1989,Royal Baron,278,71.4,2,5,55.3843,-160.896,47,1.9,0.0122,0.02258,77.57,49
21720,Pacific cod,1989,89020290,9/12/1989,Royal Baron,263,86.7,2,4,55.19,-161.0325,74,1.9,0.0122,0.02258,24.95,6
21720,Pacific cod,1989,89020291,9/12/1989,Royal Baron,264,87.1,2,4,55.1523,-161.0528,70,1.9,0.0122,0.02258,6.8,1
21720,Pacific cod,1989,89020292,9/12/1989,Royal Baron,265,89,2,4,55.0708,-161.0625,74,1.7,0.0122,0.02032,40.82,8
21720,Pacific cod,1989,89020293,9/12/1989,Royal Baron,246,86.4,2,4,55.2488,-161.1187,42,1.9,0.0122,0.02258,35.83,33
21720,Pacific cod,1989,89020294,9/12/1989,Royal Baron,245,21,2,4,55.2722,-161.1567,41,1.9,0.0122,0.02258,13.61,5
21720,Pacific cod,1989,89020295,9/13/1989,Royal Baron,228,12.8,2,4,55.262,-161.2932,39,1.9,0.0122,0.02258,6.8,4
21720,Pacific cod,1989,89020296,9/13/1989,Royal Baron,VOE,20.8,2,4,55.3052,-161.481,48,1.9,0.0122,0.02258,159.67,66
21720,Pacific cod,1989,89020297,9/13/1989,Royal Baron,VOD,20.8,2,4,55.3043,-161.4903,51,1.9,0.0122,0.02258,252.65,85
21720,Pacific cod,1989,89020298,9/13/1989,Royal Baron,VOC,22.1,2,4,55.3027,-161.5508,56,1.9,0.0122,0.02258,84.37,27
21720,Pacific cod,1989,89020299,9/13/1989,Royal Baron,VOB,21.4,2,4,55.3112,-161.6258,53,1.9,0.0122,0.02258,75.75,29
21720,Pacific cod,1989,89020300,9/13/1989,Royal Baron,VOA,22.1,2,4,55.3197,-161.7108,61,1.9,0.0122,0.02258,2.27,1
21720,Pacific cod,1989,89020301,9/13/1989,Royal Baron,VOG,22.1,2,4,55.2838,-161.7453,56,1.9,0.0122,0.02258,231.79,87
21720,Pacific cod,1989,89020302,9/13/1989,Royal Baron,VON,22.1,2,4,55.2297,-161.747,58,1.9,0.0122,0.02258,30.39,12
21720,Pacific cod,1989,89020303,9/13/1989,Royal Baron,VOH,21.7,2,4,55.2683,-161.7167,58,1.9,0.0122,0.02258,61.69,21
21720,Pacific cod,1989,89020304,9/13/1989,Royal Baron,VOI,21.2,2,4,55.265,-161.6147,60,1.9,0.0122,0.02258,18.6,6
21720,Pacific cod,1989,89020306,9/14/1989,Royal Baron,PAV,20.6,2,4,55.3342,-161.5755,54,1.9,0.0122,0.02258,42.18,9
21720,Pacific cod,1989,89020307,9/14/1989,Royal Baron,PAU,21.4,2,4,55.3655,-161.67,63,1.9,0.0122,0.02258,464.48,208
21720,Pacific cod,1989,89020308,9/14/1989,Royal Baron,PAT,13,2,4,55.3683,-161.7188,44,1.7,0.0122,0.02032,40.37,16
21720,Pacific cod,1989,89020309,9/14/1989,Royal Baron,PARA,19.1,2,4,55.3808,-161.6817,66,1.9,0.0122,0.02258,56.25,21
21720,Pacific cod,1989,89020310,9/14/1989,Royal Baron,PARB,20.8,2,4,55.4163,-161.6023,47,1.9,0.0122,0.02258,6.8,3
21720,Pacific cod,1989,89020312,9/14/1989,Royal Baron,PAP,20.8,2,4,55.4402,-161.5672,40,1.9,0.0122,0.02258,31.3,22
21720,Pacific cod,1989,89020313,9/14/1989,Royal Baron,PAOB,19.6,2,4,55.4545,-161.6,43,1.9,0.0122,0.02258,29.48,12
21720,Pacific cod,1989,89020314,9/14/1989,Royal Baron,PAOA,6.7,2,4,55.418,-161.673,57,1.9,0.0122,0.02258,20.87,9
21720,Pacific cod,1989,89020315,9/14/1989,Royal Baron,PAL,18.4,2,4,55.4632,-161.6428,50,1.9,0.0122,0.02258,19.05,16
21720,Pacific cod,1989,89020316,9/15/1989,Royal Baron,PAN,8.1,2,4,55.494,-161.5247,22,1.9,0.0122,0.02258,92.08,66
21721,Juvenile Cod,1989,89020316,9/15/1989,Royal Baron,PAN,8.1,2,4,55.494,-161.5247,22,1.9,0.0122,0.02258,70.76,279
21720,Pacific cod,1989,89020318,9/15/1989,Royal Baron,PAM,21.4,2,4,55.4652,-161.564,33,1.9,0.0122,0.02258,196.86,86
21720,Pacific cod,1989,89020319,9/15/1989,Royal Baron,PAI,21.4,2,4,55.501,-161.5622,25,1.9,0.0122,0.02258,15.88,19
21720,Pacific cod,1989,89020320,9/15/1989,Royal Baron,PAE,16.7,2,4,55.5417,-161.5657,14,1.9,0.0122,0.02258,22.68,0
21721,Juvenile Cod,1989,89020320,9/15/1989,Royal Baron,PAE,16.7,2,4,55.5417,-161.5657,14,1.9,0.0122,0.02258,3.18,560
21720,Pacific cod,1989,89020321,9/15/1989,Royal Baron,PAB,12.3,2,4,55.5845,-161.5117,14,1.9,0.0122,0.02258,24.95,9
21721,Juvenile Cod,1989,89020321,9/15/1989,Royal Baron,PAB,12.3,2,4,55.5845,-161.5117,14,1.9,0.0122,0.02258,20.87,552
21720,Pacific cod,1989,89020322,9/15/1989,Royal Baron,PAC,12,2,4,55.6115,-161.4368,12,1.9,0.0122,0.02258,46.72,18
21721,Juvenile Cod,1989,89020322,9/15/1989,Royal Baron,PAC,12,2,4,55.6115,-161.4368,12,1.9,0.0122,0.02258,11.34,833
21720,Pacific cod,1989,89020324,9/15/1989,Royal Baron,PAJ,16.9,2,4,55.5365,-161.512,17,1.9,0.0122,0.02258,11.34,45
21720,Pacific cod,1989,89020325,9/15/1989,Royal Baron,PAH,14.2,2,4,55.5323,-161.6035,20,1.7,0.0122,0.02032,179.62,102
21721,Juvenile Cod,1989,89020325,9/15/1989,Royal Baron,PAH,14.2,2,4,55.5323,-161.6035,20,1.7,0.0122,0.02032,41.28,1820
21720,Pacific cod,1989,89020326,9/16/1989,Royal Baron,VOQ,15.9,2,4,55.202,-161.825,52,1.9,0.0122,0.02258,48.53,18
21720,Pacific cod,1989,89020327,9/16/1989,Royal Baron,VOR,21.1,2,4,55.1952,-161.755,63,1.9,0.0122,0.02258,278.06,101
21720,Pacific cod,1989,89020328,9/16/1989,Royal Baron,VOMB,15.9,2,4,55.2333,-161.8055,53,1.9,0.0122,0.02258,16.33,6
21720,Pacific cod,1989,89020329,9/16/1989,Royal Baron,VOFB,15.5,2,4,55.2618,-161.8032,54,1.9,0.0122,0.02258,47.63,15
21720,Pacific cod,1989,89020330,9/16/1989,Royal Baron,VOFA,5.6,2,4,55.277,-161.84,47,1.9,0.0122,0.02258,70.31,28
21720,Pacific cod,1989,89020331,9/16/1989,Royal Baron,VOMA,11.6,2,4,55.25,-161.8505,46,1.9,0.0122,0.02258,14.06,6
21720,Pacific cod,1989,89020332,9/16/1989,Royal Baron,VOP,20.3,2,4,55.2073,-161.8703,54,1.9,0.0122,0.02258,147.42,50
21720,Pacific cod,1989,89020333,9/16/1989,Royal Baron,VOL,8.9,2,4,55.2083,-161.9552,40,1.9,0.0122,0.02258,76.2,32
21720,Pacific cod,1989,89020334,9/16/1989,Royal Baron,VOO,18.2,2,4,55.2027,-161.9712,44,1.9,0.0122,0.02258,55.79,25
21720,Pacific cod,1989,89020336,9/17/1989,Royal Baron,BEB,10.3,2,3,55.1392,-162.156,40,1.9,0.0122,0.02258,34.93,12
21720,Pacific cod,1989,89020337,9/17/1989,Royal Baron,BEA,4.9,2,3,55.1293,-162.1822,40,1.9,0.0122,0.02258,4.54,2
21720,Pacific cod,1989,89020339,9/17/1989,Royal Baron,BED,17.5,2,3,55.075,-162.1567,47,1.9,0.0122,0.02258,116.12,58
21720,Pacific cod,1989,89020340,9/17/1989,Royal Baron,BEE,21.4,2,3,55.0667,-162.156,47,1.9,0.0122,0.02258,4.99,3
21720,Pacific cod,1989,89020341,9/17/1989,Royal Baron,BEG,20.3,2,3,54.9975,-162.164,47,1.9,0.0122,0.02258,9.98,8
21720,Pacific cod,1989,89020342,9/17/1989,Royal Baron,156A,44.2,2,3,54.9733,-162.1323,48,1.9,0.0122,0.02258,62.6,51
21720,Pacific cod,1989,89020343,9/17/1989,Royal Baron,157A,21,2,3,54.9165,-162.1318,40,1.9,0.0122,0.02258,10.89,7
21720,Pacific cod,1989,89020344,9/17/1989,Royal Baron,145B,32.7,2,3,54.875,-162.1633,36,1.9,0.0122,0.02258,116.12,51
21720,Pacific cod,1989,89020346,9/18/1989,Royal Baron,132A,24.2,2,3,54.9948,-162.3613,40,1.5,0.0122,0.01806,12.25,5
21720,Pacific cod,1989,89020348,9/18/1989,Royal Baron,COJ,20.8,2,3,55.0592,-162.5387,39,1.9,0.0122,0.02258,121.11,67
21720,Pacific cod,1989,89020349,9/18/1989,Royal Baron,COM,18.5,2,3,55.0367,-162.49,34,1.7,0.0122,0.02032,30.39,23
21720,Pacific cod,1989,89020350,9/19/1989,Royal Baron,COG,11,2,3,55.1408,-162.4902,50,1.9,0.0122,0.02258,114.76,39
21720,Pacific cod,1989,89020352,9/19/1989,Royal Baron,COF,11.5,2,3,55.1452,-162.5147,55,1.9,0.0122,0.02258,262.18,114
21720,Pacific cod,1989,89020355,9/22/1989,Royal Baron,98C,22.3,2,2,54.7602,-162.885,43,1.9,0.0122,0.02258,71.67,55
21720,Pacific cod,1989,89020356,9/22/1989,Royal Baron,87D,22.3,2,2,54.7833,-162.938,47,1.9,0.0122,0.02258,77.11,53
21720,Pacific cod,1989,89020357,9/22/1989,Royal Baron,87E,7.5,2,2,54.7515,-162.988,44,1.9,0.0122,0.02258,54.43,46
21720,Pacific cod,1989,89020358,9/22/1989,Royal Baron,87A,22.3,2,2,54.8102,-163.0392,45,1.9,0.0122,0.02258,1.81,2
21720,Pacific cod,1989,89020359,9/22/1989,Royal Baron,87B,22.3,2,2,54.8148,-162.95,41,1.9,0.0122,0.02258,139.25,75
21720,Pacific cod,1989,89020360,9/22/1989,Royal Baron,MOP,22.3,2,2,54.8333,-162.97,41,1.9,0.0122,0.02258,432.28,297
21720,Pacific cod,1989,89020361,9/22/1989,Royal Baron,MOO,21.4,2,2,54.8683,-162.9995,50,1.9,0.0122,0.02258,53.52,28
21720,Pacific cod,1989,89020362,9/23/1989,Royal Baron,MOB,18.5,2,2,55.0667,-163.0762,43,1.9,0.0122,0.02258,767.03,259
21720,Pacific cod,1989,89020363,9/23/1989,Royal Baron,MOD,16.1,2,2,55.0485,-163.0678,49,1.9,0.0122,0.02258,75.75,28
21720,Pacific cod,1989,89020365,9/23/1989,Royal Baron,MOF,20,2,2,55.0167,-163.0372,47,1.9,0.0122,0.02258,6.8,3
21720,Pacific cod,1989,89020366,9/23/1989,Royal Baron,MOG,17.6,2,2,55.0008,-162.9965,51,1.9,0.0122,0.02258,53.98,18
21720,Pacific cod,1989,89020367,9/23/1989,Royal Baron,MOI,16.9,2,2,54.9662,-162.9782,58,1.9,0.0122,0.02258,72.12,31
21720,Pacific cod,1989,89020368,9/23/1989,Royal Baron,MOK,21.4,2,2,54.9333,-162.9763,64,1.9,0.0122,0.02258,18.14,7
21720,Pacific cod,1989,89020369,9/24/1989,Royal Baron,MOU,18.7,2,2,54.7948,-163.2667,40,1.9,0.0122,0.02258,82.1,47
21720,Pacific cod,1989,89020370,9/24/1989,Royal Baron,MOV,15.2,2,2,54.7975,-163.1917,45,1.9,0.0122,0.02258,46.27,10
21720,Pacific cod,1989,89020371,9/24/1989,Royal Baron,MOR,18.5,2,2,54.8183,-163.1695,49,1.9,0.0122,0.02258,28.12,8
21720,Pacific cod,1989,89020372,9/24/1989,Royal Baron,MOS,21.4,2,2,54.8285,-163.113,49,1.9,0.0122,0.02258,2.72,1
21720,Pacific cod,1989,89020373,9/24/1989,Royal Baron,MON,21.3,2,2,54.855,-163.1067,53,1.9,0.0122,0.02258,7.26,3
21720,Pacific cod,1989,89020374,9/24/1989,Royal Baron,MOM,17.3,2,2,54.8552,-163.1695,50,1.9,0.0122,0.02258,235.87,149
21720,Pacific cod,1989,89020375,9/24/1989,Royal Baron,MOJ,15.9,2,2,54.8863,-163.1252,26,1.9,0.0122,0.02258,699.9,1354
21720,Pacific cod,1989,89020376,9/24/1989,Royal Baron,MOH,15.1,2,2,54.9353,-163.0412,47,1.9,0.0122,0.02258,1051.44,380
21720,Pacific cod,1989,89020377,9/24/1989,Royal Baron,MOL,21.4,2,2,54.9318,-162.975,68,1.9,0.0122,0.02258,9.07,5
21720,Pacific cod,1989,89020378,9/25/1989,Royal Baron,113,77.2,2,1,54.5175,-162.682,74,1.9,0.0122,0.02258,20.41,4
21720,Pacific cod,1989,89020379,9/25/1989,Royal Baron,125,77.2,2,1,54.5378,-162.5935,95,1.9,0.0122,0.02258,145.15,45
21720,Pacific cod,1989,89020380,9/25/1989,Royal Baron,126,77.8,2,1,54.4742,-162.5917,90,1.9,0.0122,0.02258,109.77,34
21720,Pacific cod,1989,89020381,9/25/1989,Royal Baron,138,110.1,2,1,54.4447,-162.4667,40,1.9,0.0122,0.02258,132,0
21720,Pacific cod,1989,89020382,9/25/1989,Royal Baron,137,85.7,2,1,54.5372,-162.4167,90,1.9,0.0122,0.02258,253.56,58
21720,Pacific cod,1989,89020384,9/27/1989,Royal Baron,4049,57.2,6,2,55.9917,-158.7582,40,1.9,0.0122,0.02258,5.44,1
21720,Pacific cod,1989,89020385,9/27/1989,Royal Baron,4064,40.5,6,2,56.0588,-158.5055,40,1.9,0.0122,0.02258,20.41,16
21720,Pacific cod,1989,89020386,9/27/1989,Royal Baron,4048,14.7,6,2,56.038,-158.703,49,1.9,0.0122,0.02258,66.23,25
21720,Pacific cod,1989,89020388,9/28/1989,Royal Baron,4065,80,6,2,56,-158.5837,95,1.9,0.0122,0.02258,337.93,137
21720,Pacific cod,1990,90010001,6/14/1990,Resolution,CHE,20.6,1,1,57.667,-152.4645,12,1.5,0.0122,0.01806,151.96,77
21720,Pacific cod,1990,90010002,6/14/1990,Resolution,CHF,12.7,1,1,57.6955,-152.3142,78,1.9,0.0122,0.02258,0,0
21720,Pacific cod,1990,90010003,6/14/1990,Resolution,CHA,5.5,1,1,57.5958,-152.4558,21,1.9,0.0122,0.02258,36.29,18
21720,Pacific cod,1990,90010004,6/15/1990,Resolution,CHJ,11.3,1,1,57.741,-152.3948,34,1.9,0.0122,0.02258,32.66,35
21720,Pacific cod,1990,90010006,6/15/1990,Resolution,CHK,8.6,1,1,57.718,-152.309,77,1.9,0.0122,0.02258,34.02,10
21720,Pacific cod,1990,90010007,6/15/1990,Resolution,CHB,7.9,1,1,57,-152,51,1.9,0.0122,0.02258,19.5,5
21720,Pacific cod,1990,90010008,6/15/1990,Resolution,CHL,14.1,1,1,57.7188,-152.267,95,1.9,0.0122,0.02258,3.63,1
21720,Pacific cod,1990,90010009,6/16/1990,Resolution,KZG,21.2,1,1,57.9387,-152.6125,76,1.9,0.0122,0.02258,27.22,11
21720,Pacific cod,1990,90010010,6/16/1990,Resolution,KZE,25.8,1,1,57.9133,-152.6903,57,1.9,0.0122,0.02258,1.81,1
21720,Pacific cod,1990,90010011,6/16/1990,Resolution,KZC,12.3,1,1,57.8468,-152.775,30,1.9,0.0122,0.02258,8.62,2
21720,Pacific cod,1990,90010012,6/16/1990,Resolution,KZB,2.7,1,1,57.8115,-152.8717,30,1.9,0.0122,0.02258,15.88,5
21720,Pacific cod,1990,90010013,6/16/1990,Resolution,KZA,11.7,1,1,57.7515,-152.898,22,1.9,0.0122,0.02258,35.83,10
21720,Pacific cod,1990,90010014,6/17/1990,Resolution,KZF,20.1,1,1,57.9243,-152.7148,70,1.5,0.0122,0.01806,39.01,35
21720,Pacific cod,1990,90010015,6/17/1990,Resolution,KZJ,21.4,1,1,57.9588,-152.6517,72,1.9,0.0122,0.02258,11.34,5
21720,Pacific cod,1990,90010016,6/17/1990,Resolution,KZK,21.4,1,1,57.9707,-152.5693,100,1.9,0.0122,0.02258,27.22,7
21720,Pacific cod,1990,90010017,6/17/1990,Resolution,KZO,21.4,1,1,58.0003,-152.5737,106,1.9,0.0122,0.02258,10.43,4
21720,Pacific cod,1990,90010018,6/17/1990,Resolution,MONX,75.5,1,1,58.0363,-152.5042,110,1.9,0.0122,0.02258,32.21,9
21720,Pacific cod,1990,90010019,6/17/1990,Resolution,KZR,10.8,1,1,58.1018,-152.5968,64,1.9,0.0122,0.02258,58.51,24
21720,Pacific cod,1990,90010020,6/17/1990,Resolution,KZS,3.1,1,1,58.1225,-152.5972,50,1.9,0.0122,0.02258,65.77,29
21720,Pacific cod,1990,90010021,6/17/1990,Resolution,MOPX,47.7,1,1,58.0658,-152.2918,94,1.9,0.0122,0.02258,18.6,6
21720,Pacific cod,1990,90010022,6/18/1990,Resolution,MOXX,42.5,1,1,58.1447,-152.2492,98,1.9,0.0122,0.02258,13.15,4
21720,Pacific cod,1990,90010023,6/18/1990,Resolution,MOLX,72.8,1,1,58.0692,-152.1742,90,1.9,0.0122,0.02258,31.75,11
21720,Pacific cod,1990,90010024,6/18/1990,Resolution,255,128.3,1,1,58.0712,-152.0755,75,1.9,0.0122,0.02258,19.5,7
21720,Pacific cod,1990,90010025,6/18/1990,Resolution,256,82.1,1,1,58.0687,-151.8567,65,1.9,0.0122,0.02258,29.48,11
21720,Pacific cod,1990,90010026,6/18/1990,Resolution,257,82.1,1,1,58.0845,-151.6838,76,1.9,0.0122,0.02258,9.98,7
21720,Pacific cod,1990,90010027,6/18/1990,Resolution,284,82.4,1,1,58.0062,-151.7977,76,1.9,0.0122,0.02258,44,12
21720,Pacific cod,1990,90010028,6/18/1990,Resolution,283,132,1,1,57.9917,-151.9393,93,1.9,0.0122,0.02258,24.49,7
21720,Pacific cod,1990,90010029,6/19/1990,Resolution,MOGX,65.9,1,1,57.9338,-152.1913,105,1.9,0.0122,0.02258,14.06,4
21720,Pacific cod,1990,90010030,6/19/1990,Resolution,MOEX,36.2,1,1,57.9477,-152.3743,72,1.7,0.0122,0.02032,49.44,25
21720,Pacific cod,1990,90010031,6/19/1990,Resolution,CHG,32.8,1,1,57.692,-152.2332,55,1.9,0.0122,0.02258,11.34,7
21720,Pacific cod,1990,90010032,6/19/1990,Resolution,369X,142.8,1,1,57.7408,-152.725,59,1.9,0.0122,0.02258,37.65,18
21720,Pacific cod,1990,90010033,6/21/1990,Resolution,395,85.7,1,1,57.6862,-151.951,60,1.9,0.0122,0.02258,22.68,9
21720,Pacific cod,1990,90010034,6/21/1990,Resolution,420,83.3,1,1,57.5975,-151.8142,70,1.9,0.0122,0.02258,34.02,15
21720,Pacific cod,1990,90010035,6/21/1990,Resolution,421,83.3,1,1,57.5628,-151.6972,66,1.9,0.0122,0.02258,50.8,20
21720,Pacific cod,1990,90010036,6/21/1990,Resolution,444,83.5,1,1,57.5247,-151.6565,91,1.9,0.0122,0.02258,7.26,2
21720,Pacific cod,1990,90010037,6/21/1990,Resolution,443,83.5,1,1,57.5125,-151.7645,70,1.9,0.0122,0.02258,0,0
21720,Pacific cod,1990,90010038,6/21/1990,Resolution,442,83.5,1,1,57.499,-151.8907,53,1.9,0.0122,0.02258,89.36,22
21720,Pacific cod,1990,90010039,6/22/1990,Resolution,UGE,12.7,1,2,57.4148,-152.637,52,1.9,0.0122,0.02258,11.79,4
21720,Pacific cod,1990,90010040,6/22/1990,Resolution,UGF,15.8,1,2,57.394,-152.5588,45,1.9,0.0122,0.02258,14.06,6
21720,Pacific cod,1990,90010042,6/22/1990,Resolution,UGI,22.3,1,2,57.3615,-152.535,50,1.9,0.0122,0.02258,2.72,1
21720,Pacific cod,1990,90010043,6/22/1990,Resolution,UGM,16.8,1,2,57.3148,-152.5272,56,1.9,0.0122,0.02258,13.15,5
21720,Pacific cod,1990,90010044,6/22/1990,Resolution,UGJ,21,1,2,57.3318,-152.4598,45,1.9,0.0122,0.02258,9.53,6
21720,Pacific cod,1990,90010045,6/22/1990,Resolution,UGG,11,1,2,57.3743,-152.4773,28,1.9,0.0122,0.02258,94.8,54
21720,Pacific cod,1990,90010046,6/22/1990,Resolution,UGH,17.5,1,2,57.3743,-152.4773,20,1.9,0.0122,0.02258,391,189
21720,Pacific cod,1990,90010047,6/22/1990,Resolution,UGD,11,1,2,57.4187,-152.608,53,1.9,0.0122,0.02258,19.5,4
21720,Pacific cod,1990,90010048,6/23/1990,Resolution,UGA,21.6,1,2,57.4865,-152.8697,40,1.9,0.0122,0.02258,115.67,31
21720,Pacific cod,1990,90010049,6/23/1990,Resolution,UGB,5.8,1,2,57.457,-152.754,47,1.9,0.0122,0.02258,78.47,25
21720,Pacific cod,1990,90010050,6/23/1990,Resolution,UGC,17.5,1,2,57.4507,-152.7195,49,1.5,0.0122,0.01806,27.22,8
21720,Pacific cod,1990,90010051,6/23/1990,Resolution,486,57.3,1,2,57.2965,-152.4797,54,1.9,0.0122,0.02258,24.95,8
21720,Pacific cod,1990,90010052,6/23/1990,Resolution,510,109.9,1,2,57.2802,-152.5148,57,1.9,0.0122,0.02258,10.89,3
21720,Pacific cod,1990,90010053,6/23/1990,Resolution,511,85.7,1,2,57.2187,-152.4275,40,1.9,0.0122,0.02258,69.4,18
21720,Pacific cod,1990,90010054,6/23/1990,Resolution,KLL,21.4,1,2,57.1915,-152.7262,75,1.9,0.0122,0.02258,9.07,3
21720,Pacific cod,1990,90010055,6/24/1990,Resolution,533B,42.9,1,2,57.1592,-152.682,76,1.9,0.0122,0.02258,7.26,4
21720,Pacific cod,1990,90010056,6/24/1990,Resolution,534,85.7,1,2,57.111,-152.5015,62,1.7,0.0122,0.02032,150.14,35
21720,Pacific cod,1990,90010057,6/24/1990,Resolution,535,85.7,1,2,57.1447,-152.432,74,1.9,0.0122,0.02258,54.43,19
21720,Pacific cod,1990,90010058,6/24/1990,Resolution,561,85.7,1,2,57.053,-152.4247,81,1.9,0.0122,0.02258,24.49,8
21720,Pacific cod,1990,90010059,6/24/1990,Resolution,589,85.7,1,2,56.984,-152.3722,75,1.9,0.0122,0.02258,21.32,6
21720,Pacific cod,1990,90010060,6/24/1990,Resolution,621,85.7,1,2,56.8902,-152.3837,83,1.9,0.0122,0.02258,0,0
21720,Pacific cod,1990,90010061,6/24/1990,Resolution,656,85.7,1,2,56.8238,-152.3672,89,1.9,0.0122,0.02258,0,0
21720,Pacific cod,1990,90010062,6/24/1990,Resolution,620,85.7,1,2,56.8747,-152.5348,86,1.9,0.0122,0.02258,0,0
21720,Pacific cod,1990,90010063,6/25/1990,Resolution,533A,42.9,1,2,57.1563,-152.7608,80,1.9,0.0122,0.02258,2.72,1
21720,Pacific cod,1990,90010064,6/25/1990,Resolution,559,85.7,1,2,57.0787,-152.7217,83,1.9,0.0122,0.02258,9.98,5
21720,Pacific cod,1990,90010065,6/25/1990,Resolution,560,85.7,1,2,57.0302,-152.587,80,1.9,0.0122,0.02258,2.72,1
21720,Pacific cod,1990,90010066,6/25/1990,Resolution,588,85.7,1,2,56.9817,-152.5712,85,1.9,0.0122,0.02258,0,0
21720,Pacific cod,1990,90010067,6/25/1990,Resolution,587,85.7,1,2,56.9618,-152.6612,80,1.9,0.0122,0.02258,0,0
21720,Pacific cod,1990,90010068,6/25/1990,Resolution,619,85.7,1,2,56.9053,-152.7202,74,1.9,0.0122,0.02258,9.98,3
21720,Pacific cod,1990,90010069,6/25/1990,Resolution,618A,42.9,1,3,56.9053,-152.8455,63,1.9,0.0122,0.02258,45.81,13
21720,Pacific cod,1990,90010070,6/25/1990,Resolution,586,85.7,1,3,56.9533,-152.8972,73,1.9,0.0122,0.02258,22.23,8
21720,Pacific cod,1990,90010071,6/26/1990,Resolution,558B,42.9,1,3,57.0562,-152.8085,62,1.9,0.0122,0.02258,207.75,63
21720,Pacific cod,1990,90010072,6/26/1990,Resolution,585X,78.8,1,3,56.9532,-152.9517,69,1.9,0.0122,0.02258,5.44,2
21720,Pacific cod,1990,90010073,6/26/1990,Resolution,585X,78.8,1,3,56.9167,-152.9953,72,1.9,0.0122,0.02258,2.72,1
21720,Pacific cod,1990,90010074,6/26/1990,Resolution,651,85.7,1,3,56.81,-153.2098,96,1.9,0.0122,0.02258,38.56,13
21720,Pacific cod,1990,90010075,6/27/1990,Resolution,KLB,9.3,1,2,57.2953,-152.9785,44,1.9,0.0122,0.02258,36.29,10
21720,Pacific cod,1990,90010076,6/27/1990,Resolution,KLA,20.9,1,2,57.298,-153.0418,52,1.9,0.0122,0.02258,42.64,12
21720,Pacific cod,1990,90010077,6/27/1990,Resolution,KLC,19.6,1,2,57.2762,-152.9285,51,1.9,0.0122,0.02258,37.2,12
21720,Pacific cod,1990,90010078,6/27/1990,Resolution,KLI,21.4,1,2,57.2243,-152.8535,65,1.9,0.0122,0.02258,19.5,8
21720,Pacific cod,1990,90010079,6/27/1990,Resolution,KLD,18.2,1,2,57.2623,-152.735,12,1.9,0.0122,0.02258,119.3,36
21720,Pacific cod,1990,90010080,6/27/1990,Resolution,KLH,16.8,1,2,57.212,-152.8862,65,1.9,0.0122,0.02258,51.26,13
21720,Pacific cod,1990,90010081,6/27/1990,Resolution,KLG,16.5,1,2,57.1953,-152.966,64,1.9,0.0122,0.02258,13.61,4
21720,Pacific cod,1990,90010082,6/27/1990,Resolution,KLF,15.1,1,2,57.1835,-153.043,67,1.9,0.0122,0.02258,24.04,6
21720,Pacific cod,1990,90010083,6/27/1990,Resolution,KLE,8.2,1,2,57.1685,-153.1147,62,1.9,0.0122,0.02258,24.49,6
21720,Pacific cod,1990,90010084,6/28/1990,Resolution,THN,5.1,1,3,57.1575,-153.3262,58,1.5,0.0122,0.01806,13.61,4
21720,Pacific cod,1990,90010085,6/28/1990,Resolution,THM,10.6,1,3,57.1377,-153.348,65,1.9,0.0122,0.02258,47.63,15
21720,Pacific cod,1990,90010086,6/28/1990,Resolution,THL,9.3,1,3,57.105,-153.3905,66,1.9,0.0122,0.02258,42.18,9
21720,Pacific cod,1990,90010087,6/28/1990,Resolution,THJ,17.8,1,3,57.0687,-153.4263,63,1.9,0.0122,0.02258,20.41,4
21720,Pacific cod,1990,90010088,6/28/1990,Resolution,THK,16.5,1,3,57.1337,-153.4883,55,1.9,0.0122,0.02258,27.67,8
21720,Pacific cod,1990,90010089,6/28/1990,Resolution,THI,21.6,1,3,57.0452,-153.5655,51,1.9,0.0122,0.02258,30.84,6
21720,Pacific cod,1990,90010090,6/28/1990,Resolution,THF,38.2,1,3,57.0042,-153.5802,40,1.9,0.0122,0.02258,7.71,2
21720,Pacific cod,1990,90010091,6/28/1990,Resolution,THG,21.1,1,3,56.9973,-153.4628,65,1.9,0.0122,0.02258,8.62,3
21720,Pacific cod,1990,90010092,6/28/1990,Resolution,THH,19.2,1,3,57.045,-153.356,24,1.1,0.0122,0.01355,40.82,17
21720,Pacific cod,1990,90010093,6/29/1990,Resolution,THA,15.1,1,3,56.8675,-153.7042,28,1.9,0.0122,0.02258,36.29,10
21720,Pacific cod,1990,90010094,6/29/1990,Resolution,THB,9.6,1,3,56.8943,-153.6053,48,1.9,0.0122,0.02258,55.79,21
21720,Pacific cod,1990,90010095,6/29/1990,Resolution,THC,24.7,1,3,56.9193,-153.4943,72,1.9,0.0122,0.02258,20.87,5
21720,Pacific cod,1990,90010096,6/29/1990,Resolution,THD,34.4,1,3,56.9508,-153.4702,72,1.9,0.0122,0.02258,31.75,8
21720,Pacific cod,1990,90010097,6/29/1990,Resolution,614,61.2,1,3,56.8957,-153.4497,74,1.9,0.0122,0.02258,40.37,14
21720,Pacific cod,1990,90010098,6/29/1990,Resolution,615,99.5,1,3,56.8903,-153.3917,78,1.9,0.0122,0.02258,63.5,20
21720,Pacific cod,1990,90010099,6/29/1990,Resolution,729,85.7,1,3,56.6453,-153.1642,81,1.9,0.0122,0.02258,1.36,1
21720,Pacific cod,1990,90010100,6/29/1990,Resolution,728,85.7,1,3,56.6358,-153.2938,80,1.9,0.0122,0.02258,19.05,7
21720,Pacific cod,1990,90010101,6/30/1990,Resolution,688,85.7,1,3,56.7125,-153.6002,86,1.5,0.0122,0.01806,40.82,14
21720,Pacific cod,1990,90010102,6/30/1990,Resolution,726,85.7,1,3,56.6682,-153.5698,85,1.9,0.0122,0.02258,29.48,9
21720,Pacific cod,1990,90010103,6/30/1990,Resolution,727,85.7,1,3,56.6445,-153.4668,80,1.9,0.0122,0.02258,26.31,9
21720,Pacific cod,1990,90010104,6/30/1990,Resolution,761,85.7,1,3,56.5907,-153.361,79,1.9,0.0122,0.02258,7.71,3
21720,Pacific cod,1990,90010105,6/30/1990,Resolution,760,85.7,1,3,56.5887,-153.3955,77,1.9,0.0122,0.02258,127.91,42
21720,Pacific cod,1990,90010107,6/30/1990,Resolution,725,85.7,1,3,56.6538,-153.8073,55,1.9,0.0122,0.02258,46.27,21
21720,Pacific cod,1990,90010108,7/1/1990,Resolution,684B,10.3,1,4,56.7637,-154.2035,49,1.9,0.0122,0.02258,22.68,8
21720,Pacific cod,1990,90010110,7/1/1990,Resolution,684A,21.7,1,4,56.7638,-154.2603,25,1.9,0.0122,0.02258,1.81,1
21720,Pacific cod,1990,90010111,7/1/1990,Resolution,684C,8.6,1,4,56.7278,-154.3062,39,1.9,0.0122,0.02258,51.26,11
21720,Pacific cod,1990,90010112,7/1/1990,Resolution,683D,9.3,1,4,56.7208,-154.3472,39,1.9,0.0122,0.02258,31.75,10
21720,Pacific cod,1990,90010113,7/1/1990,Resolution,683B,20.9,1,4,56.7543,-154.3443,32,1.9,0.0122,0.02258,6.8,2
21720,Pacific cod,1990,90010114,7/1/1990,Resolution,646D,37.4,1,4,56.7917,-154.3245,28,1.9,0.0122,0.02258,0,0
21720,Pacific cod,1990,90010115,7/2/1990,Resolution,646B,16.5,1,4,56.8488,-154.372,31,1.9,0.0122,0.02258,9.07,2
21720,Pacific cod,1990,90010116,7/2/1990,Resolution,646A,27.1,1,4,56.8388,-154.4128,32,1.9,0.0122,0.02258,22.68,5
21720,Pacific cod,1990,90010117,7/2/1990,Resolution,645,85.7,1,4,56.8478,-154.4945,38,1.9,0.0122,0.02258,15.88,3
21720,Pacific cod,1990,90010118,7/2/1990,Resolution,646C,27.9,1,4,56.7913,-154.4627,35,1.9,0.0122,0.02258,9.53,2
21720,Pacific cod,1990,90010119,7/2/1990,Resolution,683A,22.2,1,4,56.7487,-154.4318,34,1.9,0.0122,0.02258,15.88,5
21720,Pacific cod,1990,90010120,7/2/1990,Resolution,682B,21.7,1,4,56.7538,-154.5115,40,1.9,0.0122,0.02258,0,0
21720,Pacific cod,1990,90010121,7/2/1990,Resolution,683C,21.6,1,4,56.7067,-154.4272,10,0.9,0.0122,0.01129,0,0
21720,Pacific cod,1990,90010122,7/2/1990,Resolution,684D,5.8,1,4,56.7145,-154.22,20,1.9,0.0122,0.02258,0,0
21720,Pacific cod,1990,90010123,7/3/1990,Resolution,608X,171.5,1,4,56.8235,-155.1388,62,1.9,0.0122,0.02258,302.1,70
21720,Pacific cod,1990,90010124,7/3/1990,Resolution,678X,171.5,1,4,56.739,-155.1655,43,1.9,0.0122,0.02258,69.4,21
21720,Pacific cod,1990,90010125,7/3/1990,Resolution,677X,170.5,1,4,56.6912,-155.294,56,0.9,0.0122,0.01129,32.66,8
21720,Pacific cod,1990,90010126,7/3/1990,Resolution,676X,171.5,1,4,56.6582,-155.4948,114,0.9,0.0122,0.01129,77.57,25
21720,Pacific cod,1990,90010127,7/3/1990,Resolution,712X,171.5,1,4,56.6457,-155.6202,127,0.9,0.0122,0.01129,3.63,1
21720,Pacific cod,1990,90010128,7/3/1990,Resolution,748X,171.5,1,4,56.5695,-155.7685,126,1.9,0.0122,0.02258,14.06,5
21720,Pacific cod,1990,90010129,7/3/1990,Resolution,750X,171.5,1,4,56.5582,-155.6003,90,0.9,0.0122,0.01129,34.02,9
21720,Pacific cod,1990,90010130,7/3/1990,Resolution,781X,171.5,1,4,56.493,-155.6648,72,0.9,0.0122,0.01129,180.08,52
21720,Pacific cod,1990,90010131,7/3/1990,Resolution,815X,171.5,1,4,56.3343,-155.7638,42,1.5,0.0122,0.01806,14.06,4
21720,Pacific cod,1990,90010132,7/4/1990,Resolution,816X,171.5,1,4,56.334,-155.6563,38,1.9,0.0122,0.02258,216.82,91
21720,Pacific cod,1990,90010133,7/4/1990,Resolution,881X,171.5,1,4,56.2497,-155.7875,39,1.9,0.0122,0.02258,251.29,113
21720,Pacific cod,1990,90010134,7/4/1990,Resolution,891,85.7,1,3,56.2398,-154.2338,68,1.5,0.0122,0.01806,46.27,22
21720,Pacific cod,1990,90010135,7/4/1990,Resolution,892,85.7,1,3,56.2323,-154.1335,74,1.9,0.0122,0.02258,11.79,7
21720,Pacific cod,1990,90010136,7/4/1990,Resolution,858,85.7,1,3,56.3158,-154.2645,50,1.9,0.0122,0.02258,163.3,60
21720,Pacific cod,1990,90010138,7/5/1990,Resolution,794,85.7,1,3,56.4802,-153.6193,80,0.9,0.0122,0.01129,9.07,4
21720,Pacific cod,1990,90010139,7/5/1990,Resolution,759,85.7,1,3,56.5592,-153.5212,85,1.7,0.0122,0.02032,21.32,7
21720,Pacific cod,1990,90010140,7/5/1990,Resolution,ALB,17.8,1,4,56.804,-154.2055,19,1.9,0.0122,0.02258,5.9,6
21720,Pacific cod,1990,90010141,7/6/1990,Resolution,ALD,13,1,4,56.8518,-154.1898,29,1.9,0.0122,0.02258,27.22,7
21720,Pacific cod,1990,90010142,7/6/1990,Resolution,ALF,21.4,1,4,56.8428,-154.1617,28,1.9,0.0122,0.02258,21.77,9
21720,Pacific cod,1990,90010143,7/6/1990,Resolution,ALC,22.9,1,4,56.819,-154.1213,40,1.9,0.0122,0.02258,285.77,90
21720,Pacific cod,1990,90010145,7/6/1990,Resolution,ALA,3.1,1,4,56.7793,-154.1387,39,1.9,0.0122,0.02258,14.52,5
21720,Pacific cod,1990,90010146,7/6/1990,Resolution,ALG,19.9,1,4,56.8422,-154.0845,33,1.9,0.0122,0.02258,34.02,11
21720,Pacific cod,1990,90010147,7/6/1990,Resolution,ALJ,15.1,1,4,56.8862,-154.018,40,1.9,0.0122,0.02258,67.59,20
21720,Pacific cod,1990,90010148,7/7/1990,Resolution,ALH,16.1,1,4,56.8627,-154.1363,30,1.9,0.0122,0.02258,22.23,7
21720,Pacific cod,1990,90010149,7/7/1990,Resolution,ALI,16.6,1,4,56.8872,-154.093,44,1.9,0.0122,0.02258,21.32,6
21720,Pacific cod,1990,90010150,7/7/1990,Resolution,ALL,8.2,1,4,56.9113,-154.0723,51,1.9,0.0122,0.02258,33.57,8
21720,Pacific cod,1990,90010151,7/7/1990,Resolution,ALM,16.1,1,4,56.9222,-153.9713,35,1.9,0.0122,0.02258,0,0
21720,Pacific cod,1990,90010152,7/7/1990,Resolution,ALK,9.9,1,4,56.9138,-153.9585,37,1.9,0.0122,0.02258,9.07,2
21720,Pacific cod,1990,90010154,7/7/1990,Resolution,ALO,16.8,1,4,56.971,-153.9873,72,1.9,0.0122,0.02258,11.34,3
21720,Pacific cod,1990,90010155,7/7/1990,Resolution,ALQ,14.4,1,4,57.0552,-153.926,97,1.9,0.0122,0.02258,21.77,6
21720,Pacific cod,1990,90010156,7/8/1990,Resolution,ALR,13.4,1,4,57.096,-153.8362,72,1.9,0.0122,0.02258,17.69,4
21720,Pacific cod,1990,90010157,7/8/1990,Resolution,ALP,18.4,1,4,57.0292,-153.9568,82,1.9,0.0122,0.02258,87.09,20
21720,Pacific cod,1990,90020158,7/21/1990,Resolution,AKA,33.2,3,1,54.1548,-165.71,39,1.9,0.0122,0.02258,23.59,21
21720,Pacific cod,1990,90020159,7/21/1990,Resolution,AKD,22.5,3,1,54.191,-165.7083,44,1.9,0.0122,0.02258,44,23
21720,Pacific cod,1990,90020160,7/21/1990,Resolution,AKC,21.2,3,1,54.1867,-165.7288,48,1.9,0.0122,0.02258,42.64,27
21720,Pacific cod,1990,90020161,7/21/1990,Resolution,AKG,21.4,3,1,54.2273,-165.7433,50,1.9,0.0122,0.02258,1.36,2
21720,Pacific cod,1990,90020162,7/21/1990,Resolution,AKL,21.4,3,1,54.27,-165.758,57,1.9,0.0122,0.02258,2.27,1
21720,Pacific cod,1990,90020163,7/21/1990,Resolution,UNC,22.6,3,2,53.9413,-166.6045,72,1.9,0.0122,0.02258,32.21,7
21720,Pacific cod,1990,90020164,7/22/1990,Resolution,UND,11.7,3,2,53.9547,-166.4927,39,1.9,0.0122,0.02258,78.02,21
21720,Pacific cod,1990,90020165,7/22/1990,Resolution,UNE,17.9,3,2,53.9695,-166.4918,55,1.9,0.0122,0.02258,59.42,14
21720,Pacific cod,1990,90020166,7/22/1990,Resolution,UNF,21.4,3,2,53.9875,-166.5308,84,1.9,0.0122,0.02258,11.34,3
21720,Pacific cod,1990,90020167,7/22/1990,Resolution,UNG,21.4,3,2,53.9967,-166.4673,50,1.7,0.0122,0.02032,36.74,11
21720,Pacific cod,1990,90020168,7/22/1990,Resolution,UNJ,21.4,3,2,54.0377,-166.5128,97,1.9,0.0122,0.02258,14.52,5
21720,Pacific cod,1990,90020169,7/23/1990,Resolution,UNI,19.7,3,2,54.0242,-166.593,66,1.9,0.0122,0.02258,36.74,7
21720,Pacific cod,1990,90020170,7/23/1990,Resolution,KAA,19.5,3,2,53.9742,-166.364,23,1.5,0.0122,0.01806,0,0
21720,Pacific cod,1990,90020171,7/23/1990,Resolution,BIN,17.5,3,4,53.8755,-166.2003,130,0.9,0.0122,0.01129,127.91,44
21720,Pacific cod,1990,90020172,7/23/1990,Resolution,BIK,13.1,3,4,53.8522,-166.3433,155,1.9,0.0122,0.02258,12.7,3
21720,Pacific cod,1990,90020173,7/24/1990,Resolution,BIT,21.4,3,4,53.9028,-166.0355,86,1.9,0.0122,0.02258,46.72,13
21720,Pacific cod,1990,90020174,7/24/1990,Resolution,BIU,85.7,3,4,53.8442,-165.9907,55,1.9,0.0122,0.02258,0.45,1
21720,Pacific cod,1990,90020175,7/24/1990,Resolution,BIG,22.6,3,4,53.809,-166.387,137,1.9,0.0122,0.02258,62.6,13
21720,Pacific cod,1990,90020176,7/24/1990,Resolution,BID,19,3,4,53.791,-166.4333,137,1.9,0.0122,0.02258,18.14,4
21720,Pacific cod,1990,90020177,7/24/1990,Resolution,BIB,17.3,3,4,53.7518,-166.508,95,1.9,0.0122,0.02258,26.31,6
21720,Pacific cod,1990,90020178,7/25/1990,Resolution,USF,13.6,3,4,53.525,-166.6687,41,1.9,0.0122,0.02258,58.51,24
21720,Pacific cod,1990,90020179,7/25/1990,Resolution,USG,19.7,3,4,53.5377,-166.6208,43,1.9,0.0122,0.02258,68.95,26
21720,Pacific cod,1990,90020180,7/25/1990,Resolution,USB,19.8,3,4,53.4735,-166.7115,57,1.9,0.0122,0.02258,53.07,21
21720,Pacific cod,1990,90020181,7/25/1990,Resolution,USA,12.2,3,4,53.5625,-166.7903,62,1.9,0.0122,0.02258,113.85,22
21720,Pacific cod,1990,90020182,7/25/1990,Resolution,USC,21.4,3,4,53.4445,-166.6838,54,1.9,0.0122,0.02258,0,0
21720,Pacific cod,1990,90020184,7/27/1990,Resolution,IDK,21.4,3,4,53.4953,-167.6495,67,1.3,0.0122,0.01581,124.29,58
21720,Pacific cod,1990,90020185,7/27/1990,Resolution,IDG,21.4,3,4,53.5358,-167.6685,51,1.9,0.0122,0.02258,5.9,3
21720,Pacific cod,1990,90020186,7/27/1990,Resolution,IDH,21.4,3,4,53.542,-167.6027,40,1.9,0.0122,0.02258,0,0
21720,Pacific cod,1990,90020187,7/28/1990,Resolution,INA,16.4,3,4,53.3015,-168.3958,23,1.3,0.0122,0.01581,0,0
21720,Pacific cod,1990,90020188,7/28/1990,Resolution,INB,15,3,4,53.3168,-168.4368,31,1.9,0.0122,0.02258,0,0
21720,Pacific cod,1990,90020189,7/28/1990,Resolution,INJ,21.4,3,4,53.3413,-168.4917,44,1.9,0.0122,0.02258,0,0
